     2.11           OBSERVATION DATA    G (GPS)             RINEX VERSION / TYPE
teqc  2017Sep15     Mike Craymer        20220516 16:33:10UTCPGM / RUN BY / DATE
Linux 2.6.32-573.12.1.x86_64|x86_64|gcc -static|Linux 64|=+ COMMENT
   0.100      (antenna height)                              COMMENT
 +46.22068050 (latitude)                                    COMMENT
 -64.55200955 (longitude)                                   COMMENT
-014.185      (elevation)                                   COMMENT
BIT 2 OF LLI FLAGS DATA COLLECTED UNDER A/S CONDITION       COMMENT
SHE2 (COGO code)                                            COMMENT
SHE2                                                        MARKER NAME
40169M002                                                   MARKER NUMBER
MRC                 NRCan/GSD                               OBSERVER / AGENCY
5003K65317          TRIMBLE NETR8       48.01               REC # / TYPE / VERS
4624A17046          TRM29659.00     NONE                    ANT # / TYPE
  1899507.9900 -3991722.3600  4582242.8200                  APPROX POSITION XYZ
        0.1000        0.0000        0.0000                  ANTENNA: DELTA H/E/N
     1     1                                                WAVELENGTH FACT L1/2
     6    L1    L2    C1    P2    S1    S2                  # / TYPES OF OBSERV
    30.0000                                                 INTERVAL
    18                                                      LEAP SECONDS
 SNR is mapped to RINEX snr flag value [0-9]                COMMENT
  L1 & L2: min(max(int(snr_dBHz/6), 0), 9)                  COMMENT
  2022     1     1     0     0    0.0000000     GPS         TIME OF FIRST OBS
                                                            END OF HEADER
 22  1  1  0  0  0.0000000  0 11G13G23G30G17G21G27G08G01G07G14G10
 127981067.281 6  99725542.61042  24353991.148    24353997.371          37.200
        16.900
 135435405.920 6 105534085.60543  25772495.523    25772502.391          38.200
        20.100
 111705242.978 8  87043085.35546  21256793.375    21256801.414          51.000
        41.600
 126741529.218 6  98759753.40443  24118134.188    24118140.117          38.100
        22.800
 109348898.516 8  85206982.36747  20808391.609    20808396.836          50.900
        42.600
 125421276.505 6  97730902.97546  23866854.086    23866862.770          40.400
        36.200
 112343617.729 8  87540574.70648  21378271.539    21378280.281          49.600
        50.900
 111739150.196 8  87069515.01546  21263244.391    21263253.660          48.800
        38.500
 110229534.791 8  85893151.91446  20975970.211    20975975.789          50.700
        41.400
 118692661.207 7  92487713.43045  22586435.523    22586441.219          43.900
        31.900
 131326886.603 6 102332676.66345  24990674.609    24990682.766          39.100
        32.100
 22  1  1  0  0 30.0000000  0 11G13G23G30G17G21G27G08G01G07G14G10
 127982494.243 6  99726654.49242  24354262.695    24354268.156          36.200
        15.600
 135480445.068 7 105569180.98744  25781067.383    25781073.488          42.700
        24.400
 111697908.590 8  87037370.24446  21255397.836    21255405.875          51.200
        41.600
 126653841.174 6  98691425.13743  24101447.164    24101453.211          40.900
        22.300
 109345327.259 8  85204199.58247  20807712.016    20807717.184          51.000
        42.100
 125522117.790 6  97809480.58546  23886043.484    23886051.934          39.900
        36.100
 112411817.444 8  87593717.33748  21391249.695    21391258.438          49.100
        50.800
 111651176.723 8  87000964.28746  21246503.758    21246512.441          48.600
        39.200
 110276409.404 8  85929677.57246  20984890.328    20984895.730          50.600
        41.100
 118607693.878 7  92421505.13545  22570266.313    22570272.066          44.600
        31.800
 131322374.751 6 102329160.95945  24989815.664    24989824.348          39.900
        31.800
 22  1  1  0  1  0.0000000  0 10G13G30G17G21G27G08G01G07G14G10
 127984490.849 6  99728210.31442  24354642.469    24354647.227          36.700
        16.300
 111691174.194 8  87032122.66146  21254116.281    21254124.203          50.300
        41.600
 126566305.678 6  98623215.67743  24084789.336    24084796.027          39.500
        22.200
 109342325.010 8  85201860.17647  20807140.930    20807145.805          49.100
        42.500
 125622998.280 6  97888088.75446  23905241.695    23905249.441          39.000
        36.500
 112480256.751 8  87647046.66348  21404273.438    21404281.711          49.800
        50.700
 111563664.774 8  86932773.18746  21229850.805    21229860.367          48.900
        39.700
 110323827.718 8  85966626.88046  20993913.945    20993919.641          50.300
        41.400
 118522876.011 7  92355413.29245  22554126.227    22554132.215          44.500
        31.700
 131318386.946 6 102326053.56445  24989058.016    24989065.703          39.700
        33.100
 22  1  1  0  1 30.0000000  0 10G13G30G17G21G27G08G01G07G14G10
 127987057.142 6  99730209.99342  24355131.492    24355136.719          37.500
        16.900
 111685041.004 8  87027343.55046  21252949.375    21252956.828          50.600
        41.700
 126478923.904 6  98555126.01243  24068161.617    24068167.664          40.200
        22.500
 109339892.030 8  85199964.35147  20806678.102    20806683.270          50.800
        42.900
 125723917.596 6  97966727.18146  23924445.406    23924453.563          40.100
        36.200
 112548934.762 8  87700561.99348  21417342.398    21417350.320          49.400
        50.600
 111476617.932 8  86864944.50946  21213286.188    21213295.691          48.500
        39.600
 110371789.116 8  86003999.38346  21003040.734    21003046.020          50.500
        41.200
 118438209.802 7  92289439.63645  22538014.852    22538020.605          44.800
        31.800
 131314924.565 6 102323355.62045  24988398.602    24988406.230          37.400
        32.200
 22  1  1  0  2  0.0000000  0 10G13G30G17G21G27G08G01G07G14G10
 127990192.376 6  99732653.02542  24355728.914    24355732.969          36.800
        16.300
 111679509.101 8  87023032.97246  21251896.469    21251904.625          50.900
        41.500
 126391696.199 6  98487156.42543  24051562.969    24051568.957          40.000
        22.600
 109338027.559 8  85198511.53247  20806323.086    20806328.371          50.400
        42.700
 125824873.930 6  98045394.45045  23943656.188    23943664.637          40.200
        35.700
 112617849.527 8  87754261.81048  21430456.703    21430464.566          50.000
        50.500
 111390038.527 8  86797480.06346  21196810.852    21196820.180          48.600
        38.700
 110420291.473 8  86041793.41046  21012270.188    21012275.707          50.900
        40.800
 118353696.370 7  92223585.02345  22521933.031    22521938.258          45.300
        31.900
 131311987.662 6 102321067.13745  24987839.828    24987847.574          37.300
        32.700
 22  1  1  0  2 30.0000000  0 10G13G30G17G21G27G08G01G07G14G10
 127993895.871 6  99735538.89342  24356432.508    24356437.969          37.200
        17.400
 111674578.792 8  87019191.16846  21250958.555    21250966.008          50.300
        41.800
 126304623.400 6  98419307.55644  24034993.039    24034999.203          39.500
        24.100
 109336731.337 8  85197501.49447  20806076.695    20806081.453          49.600
        42.100
 125925866.084 6  98124089.61445  23962874.695    23962882.676          39.500
        35.600
 112686999.517 8  87808144.91348  21443615.047    21443623.379          49.600
        50.300
 111303929.286 8  86730381.98546  21180424.734    21180433.418          49.100
        39.200
 110469333.549 8  86080007.99346  21021602.531    21021608.227          50.400
        40.900
 118269337.188 7  92157850.60745  22505879.422    22505885.527          45.100
        32.100
 131309576.830 6 102319188.56045  24987380.328    24987389.070          36.700
        31.000
 22  1  1  0  3  0.0000000  0 10G13G30G17G21G27G08G01G07G14G10
 127998167.127 6  99738867.15842  24357243.680    24357250.781          36.600
        15.600
 111670250.327 8  87015818.33546  21250134.773    21250142.402          50.900
        41.600
 126217705.995 6  98351579.74243  24018454.453    24018459.328          40.000
        23.300
 109336002.663 8  85196933.70846  20805937.656    20805942.707          50.200
        41.900
 126026892.517 6  98202811.51446  23982099.914    23982107.191          40.200
        36.700
 112756383.021 8  87862209.98148  21456818.211    21456826.836          48.900
        50.100
 111218292.813 8  86663652.29546  21164128.859    21164137.602          49.000
        39.400
 110518913.622 8  86118641.80046  21031037.688    21031043.324          50.600
        41.000
 118185133.625 7  92092237.44545  22489855.539    22489861.645          44.700
        32.300
 131307692.360 6 102317720.13445  24987022.406    24987030.211          37.100
        32.400
 22  1  1  0  3 30.0000000  0 10G13G30G17G21G27G08G01G07G14G10
 128003005.464 6  99742637.27642  24358166.828    24358171.645          37.800
        15.600
 111666524.164 8  87012914.83247  21249426.039    21249433.609          51.500
        42.500
 126130944.468 6  98283973.38443  24001943.461    24001949.625          39.100
        22.300
 109335840.891 8  85196807.66347  20805906.820    20805911.754          50.500
        42.000
 126127952.102 6  98281559.24446  24001331.344    24001338.270          40.300
        36.600
 112825998.265 8  87916455.62748  21470065.867    21470073.965          49.400
        50.200
 111133131.856 8  86597293.13546  21147922.813    21147932.492          49.000
        39.100
 110569030.372 8  86157693.79546  21040574.359    21040579.234          50.600
        41.400
 118101087.236 7  92026746.76245  22473862.406    22473869.215          43.700
        31.900
 131306334.884 6 102316662.37245  24986764.547    24986771.648          39.000
        31.800
 22  1  1  0  4  0.0000000  0 10G13G30G17G21G27G08G01G07G14G10
 128008410.395 6  99746848.88942  24359193.078    24359200.004          36.500
        15.600
 111663400.712 8  87010480.97446  21248831.273    21248839.195          51.200
        41.800
 126044339.723 6  98216489.20644  23985463.102    23985469.090          39.500
        24.800
 109336245.802 8  85197123.18947  20805984.078    20805988.367          50.000
        42.700
 126229043.836 6  98360332.01846  24020568.742    24020575.316          40.900
        36.500
 112895844.312 8  87970881.11148  21483357.516    21483365.789          48.900
        50.200
 111048449.367 7  86531306.82146  21131808.586    21131817.680          47.300
        39.900
 110619682.340 8  86197162.84846  21050213.219    21050218.328          50.500
        40.500
 118017199.789 7  91961379.92245  22457899.992    22457904.574          43.300
        32.200
 131305505.076 6 102316015.76245  24986606.797    24986613.137          40.000
        31.800
 22  1  1  0  4 30.0000000  0 10G13G30G17G21G27G08G01G07G14G10
 128014381.363 6  99751501.63242  24360330.617    24360336.547          36.900
        16.300
 111660880.567 8  87008517.21946  21248351.516    21248359.672          48.400
        41.600
 125957892.396 6  98149127.69943  23969011.805    23969018.789          39.000
        22.500
 109337217.169 8  85197880.10547  20806169.031    20806173.789          48.400
        43.100
 126330166.415 6  98439128.83446  24039811.055    24039819.328          41.000
        36.600
 112965919.214 8  88025484.93248  21496691.906    21496700.180          49.000
        50.000
 110964248.056 8  86465695.42646  21115785.688    21115794.254          48.600
        39.800
 110670868.345 8  86237048.03346  21059953.883    21059958.699          50.600
        40.700
 117933472.878 7  91896138.18345  22441966.703    22441972.164          44.400
        32.400
 131305203.428 6 102315780.72245  24986548.180    24986556.395          36.300
        32.100
 22  1  1  0  5  0.0000000  0 10G13G30G17G21G27G08G01G07G14G10
 128020917.347 5  99756594.60742  24361573.109    24361580.211          35.300
        15.600
 111658963.520 8  87007023.41346  21247986.859    21247994.605          50.700
        41.500
 125871603.018 6  98081889.24643  23952591.586    23952598.570          39.900
        23.000
 109338754.112 8  85199077.73347  20806461.523    20806466.164          50.700
        42.800
 126431318.455 6  98517948.59446  24059060.406    24059067.742          41.600
        36.400
 113036221.425 8  88080265.86948  21510070.305    21510077.816          49.200
        50.100
 110880530.297 8  86400460.83046  21099853.789    21099863.000          48.400
        40.100
 110722586.541 8  86277347.91446  21069795.094    21069801.023          50.100
        40.600
 117849907.691 7  91831022.44545  22426065.508    22426070.324          44.100
        33.600
 131305429.917 6 102315957.24345  24986591.984    24986599.496          38.100
        33.400
 22  1  1  0  5 30.0000000  0 10G13G30G17G21G27G08G01G07G14G10
 128028017.953 6  99762127.53242  24362926.383    24362931.375          36.500
        16.300
 111657650.122 8  87005999.98347  21247736.656    21247744.285          50.200
        42.100
 125785472.441 6  98014774.54244  23936202.516    23936208.094          39.000
        25.800
 109340856.237 8  85200715.75747  20806861.859    20806866.324          50.800
        42.500
 126532498.831 6  98596790.43846  24078313.438    24078321.652          40.100
        36.600
 113106749.740 7  88135222.99548  21523490.977    21523499.250          47.900
        50.000
 110797299.000 7  86335605.29846  21084015.688    21084025.426          47.600
        39.500
 110774835.138 8  86318061.09046  21079737.883    21079743.168          50.200
        40.600
 117766506.026 7  91766034.15845  22410194.070    22410199.238          44.400
        32.300
 131306185.394 6 102316545.93045  24986736.297    24986744.043          38.000
        33.000
 22  1  1  0  6  0.0000000  0 10G13G30G17G21G27G08G01G07G14G10
 128035682.049 6  99768099.55942  24364383.828    24364389.992          36.900
        14.800
 111656940.308 8  87005446.88046  21247601.633    21247609.555          51.300
        41.400
 125699500.878 6  97947783.76943  23919840.938    23919847.453          38.400
        23.600
 109343522.591 8  85202793.44447  20807368.875    20807373.750          49.800
        42.800
 126633706.090 6  98675653.22746  24097573.250    24097581.055          40.600
        36.500
 113177502.175 8  88190354.75948  21536955.117    21536962.805          48.300
        49.900
 110714556.517 8  86271130.66246  21068270.227    21068279.438          48.000
        40.100
 110827612.417 8  86359186.22346  21089780.977    21089786.906          50.300
        40.600
 117683269.110 7  91701174.23445  22394354.414    22394359.758          43.600
        32.200
 131307469.843 6 102317546.79245  24986980.617    24986987.895          37.700
        33.700
 22  1  1  0  6 30.0000000  0 10G13G30G17G21G27G08G01G07G14G10
 128043909.167 5  99774510.30842  24365949.031    24365955.664          35.000
        14.800
 111656834.382 8  87005364.33947  21247581.430    21247589.762          48.300
        42.000
 125613689.267 6  97880917.64244  23903512.500    23903518.371          39.200
        25.400
 109346752.519 8  85205310.28647  20807983.523    20807988.457          48.200
        42.300
 126734939.131 6  98754536.10346  24116837.086    24116844.363          40.000
        36.500
 113248476.939 8  88245659.76248  21550460.984    21550468.789          48.200
        49.900
 110632305.571 8  86207039.04746  21052618.906    21052627.883          48.100
        40.000
 110880916.749 8  86400722.04146  21099923.977    21099930.727          50.200
        40.900
 117600198.575 7  91636443.94645  22378546.617    22378552.547          43.500
        33.100
 131309283.764 6 102318960.23545  24987325.906    24987332.773          37.900
        33.600
 22  1  1  0  7  0.0000000  0 10G13G30G17G21G27G08G01G07G14G10
 128052698.604 5  99781359.22542  24367622.758    24367628.512          35.700
        17.400
 111657332.521 8  87005752.49846  21247676.438    21247684.301          48.400
        41.800
 125528038.199 6  97814176.57144  23887213.508    23887219.848          39.200
        24.000
 109350545.788 8  85208266.08847  20808705.555    20808710.254          48.300
        43.400
 126836196.729 6  98833438.09345  24136105.375    24136113.355          38.900
        35.900
 113319673.481 8  88301137.58548  21564009.227    21564017.207          48.300
        49.900
 110550548.817 8  86143332.51646  21037061.375    21037070.000          49.600
        40.600
 110934746.690 8  86442667.43246  21110167.797    21110173.375          49.700
        40.000
 117517296.079 7  91571844.60745  22362770.695    22362776.332          44.200
        32.600
 131311627.450 6 102320786.49145  24987771.875    24987779.445          38.700
        33.100
 22  1  1  0  7 30.0000000  0 10G13G30G17G21G27G08G01G07G14G10
 128062049.504 6  99788645.59242  24369400.641    24369408.211          36.200
        15.600
 111658434.842 8  87006611.45046  21247885.891    21247893.637          51.000
        41.700
 125442548.084 6  97747560.95544  23870946.109    23870951.277          40.900
        24.300
 109354901.612 8  85211660.24447  20809533.914    20809538.906          51.000
        42.500
 126937477.623 6  98912358.25045  24155378.063    24155386.277          39.000
        35.700
 113391089.078 8  88356786.10748  21577599.680    21577607.367          48.400
        49.900
 110469288.794 8  86080013.04546  21021597.641    21021605.973          48.500
        39.600
 110989100.451 8  86485021.00346  21120510.922    21120516.969          50.400
        40.700
 117434563.094 7  91507377.35845  22347027.508    22347033.086          44.600
        32.900
 131314501.202 6 102323025.78145  24988318.789    24988326.418          39.200
        32.900
 22  1  1  0  8  0.0000000  0 10G13G30G17G21G27G08G01G07G14G10
 128071960.516 6  99796368.50942  24371287.547    24371294.121          36.600
        16.300
 111660141.190 8  87007941.06646  21248210.539    21248218.461          51.000
        41.700
 125357219.545 6  97681071.23044  23854707.938    23854714.688          39.500
        24.700
 109359819.062 8  85215492.03347  20810469.828    20810474.762          50.000
        43.100
 127038780.461 6  98991295.50745  24174656.023    24174663.477          38.500
        35.600
 113462722.240 7  88412604.16348  21591230.063    21591238.863          47.500
        49.500
 110388527.812 8  86017082.43046  21006229.094    21006239.125          48.800
        40.700
 111043976.228 8  86527781.32546  21130953.453    21130958.973          49.800
        40.200
 117352000.926 7  91443043.21145  22331315.750    22331321.621          44.000
        32.500
 131317904.989 6 102325678.08745  24988965.797    24988973.719          38.700
        32.400
 22  1  1  0  8 30.0000000  0 10G13G30G17G21G27G08G01G07G14G10
 128082431.488 6  99804527.73542  24373279.781    24373285.887          36.300
        16.300
 111662452.177 8  87009741.83646  21248651.008    21248658.695          48.500
        41.500
 125272053.215 6  97614707.87744  23838501.531    23838507.227          40.400
        24.300
 109365297.453 8  85219760.92147  20811512.820    20811517.051          48.400
        42.500
 127140104.453 6  99070249.25345  24193937.289    24193944.977          39.000
        35.500
 113534572.203 7  88468591.14248  21604902.938    21604911.797          47.800
        49.400
 110308268.964 8  85954543.09846  20990956.758    20990965.734          49.300
        39.900
 111099372.626 8  86570947.32646  21141495.156    21141500.559          50.300
        39.900
 117269611.599 7  91378843.74545  22315638.313    22315643.480          44.200
        33.400
 131321839.629 6 102328744.05745  24989714.977    24989722.254          39.700
        32.800
 22  1  1  0  9  0.0000000  0 10G13G30G17G21G27G08G01G07G14G10
 128093460.987 6  99813122.14842  24375379.602    24375384.770          37.900
        14.800
 111665367.221 8  87012013.29246  21249205.242    21249213.633          50.600
        41.400
 125187049.497 6  97548471.22544  23822326.344    23822331.570          40.400
        26.600
 109371335.726 8  85224466.08047  20812661.398    20812666.039          50.700
        42.900
 127241447.745 6  99149218.02045  24213221.969    24213229.773          39.000
        34.800
 113606636.552 7  88524745.18048  21618616.563    21618624.484          47.600
        49.500
 110228514.085 8  85892396.47746  20975779.711    20975788.688          49.000
        40.500
 111155287.495 8  86614517.33746  21152135.563    21152141.199          50.400
        40.700
 117187396.078 7  91314779.71945  22299992.477    22299998.113          45.300
        33.600
 131326304.594 6 102332223.26545  24990563.781    24990571.879          37.100
        31.800
 22  1  1  0  9 30.0000000  0 10G13G30G17G21G27G08G01G07G14G10
 128105048.680 6  99822151.48042  24377583.188    24377589.762          36.500
        16.900
 111668887.053 8  87014756.01847  21249875.438    21249883.242          51.400
        42.300
 125102209.065 6  97482361.84644  23806180.570    23806187.145          40.100
        24.100
 109377934.041 8  85229607.63547  20813917.070    20813921.418          49.700
        42.700
 127342809.979 6  99228201.58145  24232511.023    24232519.004          39.000
        34.300
 113678914.639 8  88581065.75748  21632370.023    21632378.180          48.300
        49.000
 110149266.481 8  85830645.11746  20960699.531    20960708.215          49.200
        40.500
 111211719.496 8  86658490.30546  21162874.070    21162879.824          50.300
        40.000
 117105356.660 7  91250852.90145  22284380.664    22284387.648          44.100
        33.200
 131331300.926 6 102336116.51545  24991515.156    24991522.668          37.700
        33.100
 22  1  1  0 10  0.0000000  0 10G13G30G17G21G27G08G01G07G14G10
 128117192.941 6  99831614.50342  24379893.828    24379901.223          36.300
        16.300
 111673011.250 8  87017969.67147  21250660.094    21250668.191          50.200
        42.300
 125017532.856 6  97416380.38744  23790069.141    23790073.430          41.100
        25.100
 109385091.048 8  85235184.53147  20815279.320    20815283.961          50.200
        42.900
 127444189.443 6  99307198.58445  24251802.750    24251810.379          38.100
        33.500
 113751404.520 8  88637551.38048  21646165.148    21646172.602          48.400
        49.000
 110070528.144 8  85769290.58546  20945715.625    20945725.012          49.100
        40.500
 111268666.605 8  86702864.64746  21173711.086    21173716.195          50.200
        40.200
 117023494.416 7  91187064.14945  22268803.367    22268809.355          45.000
        34.200
 131336828.360 6 102340423.61345  24992566.570    24992574.668          36.400
        32.000
 22  1  1  0 10 30.0000000  0 10G13G30G17G21G27G08G01G07G14G10
 128129893.603 6  99841511.16342  24382313.578    24382317.281          37.000
        15.600
 111677739.994 8  87021654.39746  21251560.164    21251567.676          51.000
        41.400
 124933021.054 6  97350527.04943  23773985.641    23773991.395          39.500
        23.900
 109392806.058 8  85241196.24647  20816746.992    20816751.984          50.200
        42.600
 127545585.259 6  99386208.27745  24271096.953    24271105.754          38.400
        34.300
 113824104.925 7  88694201.04248  21659999.359    21660007.281          47.900
        48.800
 109992301.781 8  85708335.00746  20930830.055    20930839.324          49.500
        40.100
 111326127.153 8  86747639.09546  21184645.773    21184651.527          50.300
        40.600
 116941811.180 7  91123414.88745  22253259.734    22253265.605          45.100
        33.800
 131342887.088 6 102345144.69745  24993719.570    24993727.258          37.300
        31.900
 22  1  1  0 11  0.0000000  0 10G13G30G17G21G27G08G01G07G14G10
 128143148.990 6  99851840.04142  24384834.359    24384840.523          37.000
        16.300
 111683072.995 8  87025809.98846  21252574.969    21252582.539          48.700
        41.600
 124848674.366 6  97284802.40743  23757933.992    23757940.742          39.200
        23.800
 109401078.148 8  85247642.03647  20818321.305    20818326.121          48.200
        42.400
 127646995.936 6  99465229.59345  24290395.469    24290403.508          37.400
        34.800
 113897013.903 7  88751013.23548  21673873.313    21673881.410          47.800
        48.900
 109914589.629 8  85647780.10546  20916042.172    20916051.031          49.300
        41.300
 111384099.162 8  86792812.07246  21195677.000    21195682.168          49.800
        40.700
 116860308.283 7  91059906.14345  22237749.844    22237755.539          43.600
        33.100
 131349477.105 6 102350279.79445  24994974.578    24994981.855          39.700
        32.700
 22  1  1  0 11 30.0000000  0 10G13G30G17G21G27G08G01G07G14G10
 128156958.028 6  99862600.31442  24387462.633    24387468.387          37.800
        16.900
 111689010.069 8  87030436.27047  21253704.344    21253711.973          48.300
        42.200
 124764493.605 6  97219207.03144  23741915.281    23741922.324          40.300
        25.200
 109409906.150 8  85254521.00847  20820000.938    20820005.813          48.400
        42.300
 127748420.229 6  99544261.50145  24309696.734    24309703.660          38.200
        35.800
 113970129.861 7  88807986.70248  21687786.883    21687794.922          47.200
        48.600
 109837394.052 8  85587627.74246  20901351.938    20901361.090          49.400
        41.400
 111442580.486 8  86838381.91746  21206805.297    21206811.109          49.900
        40.500
 116778987.150 7  90996539.04445  22222274.914    22222280.551          43.800
        34.200
 131356598.460 6 102355828.88745  24996327.688    24996336.605          38.200
        31.900
 22  1  1  0 12  0.0000000  0 10G13G30G17G21G27G08G01G07G14G10
 128171320.742 6  99873792.06342  24390195.563    24390200.965          37.000
        16.300
 111695551.911 8  87035533.80147  21254949.398    21254957.555          48.400
        42.000
 124680478.721 6  97153740.88644  23725928.656    23725934.703          40.700
        26.800
 109419289.889 8  85261833.02047  20821786.555    20821791.371          48.400
        42.600
 127849857.777 6  99623303.72245  24328998.695    24329007.086          38.300
        35.400
 114043452.091 7  88865120.90248  21701739.313    21701748.055          47.700
        48.600
 109760718.225 8  85527880.36646  20886761.086    20886769.594          49.700
        41.100
 111501570.153 8  86884347.87346  21218031.203    21218036.605          49.600
        39.800
 116697850.216 7  90933315.46945  22206835.102    22206840.914          45.500
        33.800
 131364251.953 5 102361792.65945  24997784.375    24997793.527          35.900
        31.500
 22  1  1  0 12 30.0000000  0 10G13G30G17G21G27G08G01G07G14G10
 128186235.231 6  99885413.69742  24393035.383    24393039.555          37.300
        16.900
 111702697.690 8  87041101.94346  21256309.047    21256316.559          50.600
        41.300
 124596630.349 6  97088404.54244  23709972.828    23709978.230          40.200
        24.300
 109429228.027 8  85269577.04047  20823678.148    20823682.672          50.400
        42.900
 127951306.747 6  99702354.86145  24348303.555    24348310.949          37.900
        34.700
 114116978.249 7  88922414.00648  21715730.820    21715739.328          47.000
        48.400
 109684563.925 8  85468539.37046  20872268.875    20872278.438          48.600
        40.800
 111561065.410 8  86930707.79146  21229352.758    21229357.691          49.900
        39.800
 116616898.313 7  90870236.07445  22191430.203    22191435.664          44.700
        33.500
 131372436.917 6 102368170.55845  24999343.320    24999350.656          37.900
        33.600
 22  1  1  0 13  0.0000000  0 10G13G30G17G21G27G08G01G07G14G10
 128201700.681 6  99897464.74742  24395977.461    24395982.219          37.500
        17.400
 111710447.662 8  87047140.87846  21257783.430    21257791.938          48.400
        40.900
 124512949.460 6  97023198.72144  23694047.836    23694054.176          40.500
        25.300
 109439720.266 8  85277752.81947  20825674.578    20825679.629          48.300
        42.800
 128052766.335 6  99781414.31245  24367609.898    24367618.641          37.200
        33.800
 114190707.587 7  88979865.43948  21729761.273    21729769.430          46.400
        48.600
 109608933.875 8  85409606.88746  20857877.430    20857886.230          49.600
        41.400
 111621064.984 8  86977460.69946  21240770.141    21240775.777          50.000
        39.900
 116536133.519 7  90807302.48545  22176061.813    22176067.508          44.300
        34.400
 131381153.782 6 102374962.91845  25001002.008    25001009.637          37.500
        32.800
 22  1  1  0 13 30.0000000  0 10G13G30G17G21G27G08G01G07G14G10
 128217715.788 6  99909944.00242  24399024.180    24399029.699          37.400
        16.900
 111718801.545 8  87053650.39046  21259373.758    21259381.797          50.500
        41.900
 124429436.510 6  96958123.69244  23678157.016    23678162.418          41.100
        25.800
 109450765.148 8  85286359.23147  20827776.305    20827781.355          49.300
        43.300
 128154235.486 5  99860481.16445  24386918.906    24386927.824          35.900
        32.300
 114264638.812 7  89037474.18448  21743829.961    21743837.824          46.600
        48.500
 109533830.437 8  85351084.75146  20843585.945    20843594.688          49.600
        41.300
 111681566.732 8  87024604.90446  21252283.586    21252288.461          49.700
        39.900
 116455557.297 7  90744515.82645  22160727.789    22160733.367          44.700
        33.700
 131390402.601 6 102382169.81545  25002761.414    25002769.395          36.400
        32.800
 22  1  1  0 14  0.0000000  0 10G13G30G17G21G27G08G01G07G14G10
 128234279.507 6  99922850.81242  24402176.016    24402181.301          37.300
        16.900
 111727758.855 8  87060630.09946  21261078.070    21261085.758          50.500
        41.300
 124346092.115 6  96893180.03144  23662297.586    23662302.871          41.100
        27.700
 109462361.544 8  85295395.38547  20829982.945    20829987.879          49.600
        42.600
 128255712.693 6  99939554.26445  24406230.547    24406238.352          36.600
        33.800
 114338769.717 7  89095238.53248  21757936.859    21757944.723          46.100
        48.500
 109459255.593 8  85292974.51346  20829394.625    20829403.953          49.500
        40.900
 111742568.565 8  87072138.77846  21263891.305    21263896.824          49.600
        39.900
 116375170.926 7  90681877.09945  22145431.164    22145437.328          44.700
        33.800
 131400182.902 6 102389790.84345  25004623.008    25004630.930          39.600
        32.600
 22  1  1  0 14 30.0000000  0 10G13G30G17G21G27G08G01G07G14G10
 128251390.830 6  99936184.28442  24405432.852    24405437.199          37.700
        16.300
 111737319.741 8  87068080.13846  21262897.211    21262905.309          48.900
        41.700
 124262916.586 6  96828367.95844  23646469.859    23646475.145          41.400
        27.400
 109474508.997 8  85304860.94347  20832294.531    20832299.523          48.500
        43.200
 128357197.170 6 100018633.05445  24425542.219    24425549.906          38.000
        35.100
 114413098.657 7  89153157.18148  21772080.359    21772089.277          45.700
        48.300
 109385212.109 8  85235278.30946  20815304.047    20815313.434          49.400
        41.100
 111804068.834 8  87120061.05046  21275594.688    21275600.617          49.200
        39.900
 116294976.539 7  90619387.98045  22130171.164    22130176.684          45.400
        34.700
 131410495.091 6 102397826.30645  25006585.133    25006592.352          38.900
        31.900
 22  1  1  0 15  0.0000000  0 10G13G30G17G21G27G08G01G07G14G10
 128269048.463 6  99949943.48642  24408793.742    24408797.328          37.800
        16.300
 111747483.876 8  87076000.24146  21264832.117    21264839.863          51.100
        41.400
 124179910.279 6  96763687.77744  23630673.406    23630678.984          40.800
        26.500
 109487206.449 8  85314755.07347  20834710.789    20834715.488          49.500
        42.800
 128458687.776 6 100097716.64545  24444854.906    24444862.535          37.400
        32.800
 114487624.559 7  89211229.31248  21786262.656    21786270.578          45.700
        48.100
 109311702.271 8  85177997.93146  20801316.258    20801325.176          49.600
        41.400
 111866065.473 8  87168370.10446  21287392.758    21287398.043          49.600
        40.200
 116214975.527 7  90557049.54045  22114947.445    22114953.668          45.700
        34.000
 131421339.010 6 102406276.10845  25008648.891    25008655.641          39.000
        33.000
 22  1  1  0 15 30.0000000  0 10G13G30G17G21G27G08G01G07G14G10
 128287251.188 6  99964127.42542  24412256.805    24412261.563          36.900
        16.900
 111758250.837 8  87084390.07346  21266880.828    21266888.750          50.500
        41.100
 124097073.821 7  96699139.90544  23614910.727    23614916.012          42.600
        27.600
 109500452.598 8  85325076.75347  20837231.773    20837236.297          49.900
        42.600
 128560183.237 6 100176804.03245  24464169.234    24464177.273          36.700
        33.400
 114562345.604 7  89269453.50348  21800481.727    21800489.766          45.900
        48.000
 109238728.175 8  85121135.02946  20787429.320    20787438.297          48.900
        41.500
 111928556.331 8  87217064.25446  21299283.609    21299289.070          49.000
        39.900
 116135169.468 7  90494863.00945  22099760.258    22099766.539          44.500
        34.200
 131432714.446 6 102415140.08845  25010812.875    25010820.680          38.100
        32.800
 22  1  1  0 16  0.0000000  0 10G13G30G17G21G27G08G01G07G14G10
 128305998.057 6  99978735.36542  24415824.117    24415829.520          37.000
        17.800
 111769620.628 8  87093249.65147  21269044.438    21269051.598          50.000
        42.200
 124014407.988 7  96634725.01344  23599179.906    23599185.191          42.100
        27.800
 109514246.928 8  85335825.59447  20839856.469    20839861.402          49.100
        43.000
 128661682.896 6 100255894.67245  24483483.609    24483491.473          37.100
        32.400
 114637261.057 7  89327829.17647  21814737.664    21814745.293          45.800
        47.900
 109166292.463 8  85064691.64546  20773645.344    20773654.086          49.500
        41.900
 111991539.742 8  87266142.21746  21311268.922    21311274.852          48.800
        39.600
 116055560.241 7  90432829.85145  22084611.797    22084617.316          45.100
        34.700
 131444621.686 6 102424418.44545  25013078.289    25013087.500          37.600
        33.000
 22  1  1  0 16 30.0000000  0 10G13G30G17G21G27G08G01G07G14G10
 128325287.190 6  99993765.85342  24419495.234    24419500.402          38.100
        17.400
 111781592.452 8  87102578.33146  21271322.023    21271330.297          48.300
        41.200
 123931912.971 6  96570443.18144  23583481.047    23583486.508          41.700
        27.000
 109528587.522 8  85347000.09047  20842585.430    20842590.480          48.100
        42.300
 128763185.076 6 100334987.25445  24502799.664    24502807.117          36.600
        33.200
 114712368.553 7  89386354.49647  21829029.977    21829038.719          46.300
        47.700
 109094396.967 8  85008669.20847  20759964.344    20759972.969          50.300
        42.200
 112055013.263 8  87315602.08546  21323348.078    21323353.773          49.100
        39.600
 115976149.078 7  90370951.03145  22069500.203    22069506.016          45.700
        34.700
 131457060.039 6 102434110.69145  25015446.039    25015453.668          37.100
        32.300
 22  1  1  0 17  0.0000000  0 10G13G30G17G21G27G08G01G07G14G10
 128345117.828 6 100009218.30142  24423268.008    24423273.527          37.800
        17.800
 111794166.272 8  87112376.10447  21273715.313    21273722.707          49.800
        42.300
 123849589.641 6  96506295.15944  23567814.516    23567821.324          41.700
        28.500
 109543473.765 8  85358599.76647  20845418.250    20845422.715          50.200
        42.800
 128864689.019 6 100414081.22945  24522114.500    24522122.305          37.100
        33.200
 114787667.283 7  89445028.82947  21843358.992    21843366.973          45.800
        47.800
 109023044.162 8  84953069.63646  20746386.172    20746395.441          49.900
        41.400
 112118975.010 8  87365442.39346  21335519.227    21335524.980          49.200
        39.700
 115896937.882 7  90309228.02645  22054427.039    22054432.910          45.100
        34.800
 131470029.706 6 102444216.93845  25017913.930    25017921.559          37.300
        32.800
 22  1  1  0 17 30.0000000  0 10G13G30G17G21G27G08G01G07G14G10
 128365489.158 6 100025092.05042  24427144.250    24427149.652          37.500
        17.400
 111807342.099 8  87122642.97747  21276222.750    21276230.379          50.000
        42.100
 123767438.200 6  96442281.10344  23552182.992    23552188.453          41.600
        28.900
 109558904.949 8  85370624.07047  20848354.555    20848359.547          50.000
        42.700
 128966194.145 6 100493176.11745  24541430.055    24541438.680          37.100
        33.000
 114863156.429 7  89503851.53748  21857724.313    21857732.762          46.600
        48.000
 108952236.769 8  84897895.07046  20732911.617    20732920.711          50.100
        41.700
 112183423.240 8  87415661.76646  21347783.531    21347789.344          49.500
        39.200
 115817928.730 7  90247662.45545  22039391.547    22039397.594          45.400
        34.900
 131483530.923 6 102454737.36845  25020482.125    25020490.867          36.700
        33.300
 22  1  1  0 18  0.0000000  0 10G13G30G17G21G27G08G01G07G14G10
 128386399.034 6 100041385.48143  24431124.227    24431128.809          37.500
        18.300
 111821118.974 8  87133378.19647  21278844.406    21278852.035          49.800
        42.000
 123685459.272 7  96378401.45744  23536581.836    23536588.059          42.300
        26.900
 109574879.443 8  85383071.73647  20851394.156    20851399.090          49.800
        42.500
 129067698.753 6 100572270.60345  24560747.195    24560754.063          37.500
        33.600
 114938833.360 7  89562820.56247  21872125.195    21872133.176          46.400
        47.800
 108881976.381 8  84843146.74447  20719541.930    20719550.438          50.100
        42.100
 112248355.466 8  87466258.29346  21360139.516    21360145.094          49.600
        39.800
 115739122.721 7  90186255.18845  22024395.438    22024400.840          44.800
        35.100
 131497562.916 6 102465671.38845  25023154.344    25023160.742          37.100
        33.000
 22  1  1  0 18 30.0000000  0 10G13G30G17G21G27G08G01G07G14G10
 128407846.332 6 100058097.64242  24435205.789    24435211.016          38.600
        17.800
 111835496.534 8  87144581.47846  21281580.289    21281588.152          50.700
        41.700
 123603653.164 6  96314656.46944  23521014.977    23521020.496          40.600
        25.700
 109591396.431 8  85395942.12447  20854537.727    20854542.074          50.200
        43.000
 129169201.955 6 100651363.99345  24580061.227    24580069.090          37.300
        33.100
 115014697.070 7  89621935.14448  21886561.727    21886569.297          46.400
        48.000
 108812265.305 8  84788826.45447  20706276.086    20706285.238          50.200
        42.200
 112313769.710 8  87517230.41946  21372587.859    21372593.496          48.900
        38.700
 115660521.575 7  90125007.54845  22009438.195    22009444.359          46.600
        34.800
 131512125.527 6 102477018.87645  25025925.289    25025932.918          39.700
        33.300
 22  1  1  0 19  0.0000000  0 10G13G30G17G21G27G08G01G07G14G10
 128429829.919 6 100075227.71742  24439388.508    24439393.559          37.400
        16.900
 111850474.567 8  87156252.67347  21284430.500    21284438.305          50.600
        42.400
 123522020.684 6  96251046.76344  23505480.406    23505487.098          41.100
        26.700
 109608454.622 8  85409234.22747  20857783.484    20857788.770          50.000
        43.200
 129270702.800 6 100730455.51845  24599376.031    24599384.773          37.200
        32.300
 115090746.020 7  89681194.05347  21901032.813    21901041.203          46.000
        47.300
 108743105.911 8  84734936.03747  20693115.133    20693123.582          50.300
        42.300
 112379663.862 8  87568576.48746  21385127.289    21385132.691          49.100
        39.000
 115582127.168 7  90063921.00345  21994520.258    21994526.012          46.600
        35.400
 131527218.806 6 102488779.87245  25028796.578    25028804.910          38.600
        33.000
 22  1  1  0 19 30.0000000  0 10G13G30G17G21G27G08G01G07G14G10
 128452348.007 6 100092774.27242  24443672.719    24443678.414          37.300
        17.400
 111866052.296 8  87168391.15247  21287394.758    21287402.328          49.600
        42.000
 123440562.386 7  96187572.78844  23489980.609    23489984.957          42.400
        27.000
 109626052.749 8  85422947.06947  20861132.227    20861136.984          48.900
        42.600
 129372200.094 6 100809544.33145  24618691.703    24618698.688          38.600
        32.600
 115166978.821 7  89740596.21747  21915539.313    21915548.113          46.500
        47.000
 108674500.140 8  84681477.01447  20680060.055    20680068.797          50.800
        42.400
 112446035.618 8  87620294.72946  21397757.016    21397763.180          49.100
        39.400
 115503940.907 7  90002996.65145  21979641.703    21979647.809          46.300
        35.400
 131542842.152 6 102500953.89545  25031769.938    25031777.977          38.700
        32.700
 22  1  1  0 20  0.0000000  0 10G13G30G17G21G27G08G01G07G14G10
 128475399.538 6 100110736.48742  24448060.109    24448065.512          38.100
        17.400
 111882229.455 8  87180996.72746  21290473.258    21290480.887          48.100
        41.600
 123359278.427 7  96124234.67644  23474512.375    23474517.953          42.000
        27.400
 109644189.605 8  85437079.68847  20864583.672    20864588.195          48.200
        43.000
 129473693.025 6 100888629.71045  24638005.648    24638012.984          39.200
        33.300
 115243394.286 7  89800140.74247  21930081.484    21930089.582          46.700
        47.200
 108606450.323 8  84628451.21147  20667110.617    20667119.770          50.700
        42.100
 112512883.070 8  87672383.62846  21410477.383    21410483.430          48.500
        38.900
 115425964.704 7  89942235.98245  21964803.602    21964809.355          46.900
        35.800
 131558995.511 6 102513540.94745  25034845.047    25034851.152          37.700
        33.600
 22  1  1  0 20 30.0000000  0 10G13G30G17G21G27G08G01G07G14G10
 128498983.265 6 100129113.42742  24452548.297    24452553.230          38.400
        17.400
 111899005.606 8  87194069.04146  21293665.242    21293672.754          50.800
        40.300
 123278169.491 6  96061032.95844  23459078.492    23459083.543          41.600
        28.200
 109662864.554 8  85451631.60347  20868137.469    20868142.227          50.200
        42.900
 129575180.596 6 100967710.93645  24657316.789    24657325.004          37.800
        32.800
 115319990.851 7  89859826.36747  21944657.695    21944665.500          46.900
        47.100
 108538958.615 8  84575860.29147  20654267.375    20654276.176          50.000
        42.300
 112580204.035 8  87724841.50846  21423288.383    21423293.785          49.600
        38.500
 115348200.302 7  89881640.35545  21950005.289    21950011.395          47.000
        35.300
 131575678.702 6 102526540.83645  25038017.563    25038026.305          39.300
        32.700
 22  1  1  0 21  0.0000000  0 10G13G30G17G21G27G08G01G07G14G10
 128523097.404 6 100147903.68442  24457137.734    24457142.375          38.400
        16.900
 111916379.940 8  87207607.47946  21296971.625    21296979.254          50.600
        41.700
 123197235.811 6  95997967.80244  23443675.992    23443682.039          41.600
        27.200
 109682075.897 8  85466601.48847  20871793.297    20871798.289          50.000
        43.300
 129676661.675 6 101046787.06945  24676627.797    24676636.305          36.700
        31.600
 115396766.997 7  89919651.93947  21959267.031    21959274.953          46.100
        47.000
 108472026.962 8  84523705.78047  20641531.039    20641540.133          50.300
        42.200
 112647996.177 8  87777666.53046  21436188.695    21436194.508          49.100
        38.900
 115270649.218 7  89821210.94045  21935248.047    21935253.566          46.400
        35.400
 131592891.162 6 102539953.16445  25041294.992    25041302.094          40.300
        32.800
 22  1  1  0 21 30.0000000  0 10G13G30G17G21G27G08G01G07G14G10
 128547740.782 6 100167106.33342  24461826.641    24461830.754          37.900
        17.800
 111934352.375 8  87221611.96346  21300391.320    21300399.066          50.500
        41.400
 123116478.085 7  95935039.74244  23428308.961    23428314.070          42.900
        28.200
 109701822.862 8  85481988.73747  20875550.875    20875555.809          49.600
        42.600
 129778135.526 6 101125857.59345  24695938.078    24695946.352          37.600
        33.200
 115473721.792 7  89979616.71547  21973910.711    21973918.809          46.100
        46.700
 108405657.852 8  84471989.62347  20628901.250    20628910.109          50.000
        42.100
 112716257.907 8  87830857.45346  21449179.180    21449184.699          49.500
        38.600
 115193313.528 7  89760949.36845  21920531.156    21920537.203          46.400
        35.700
 131610633.002 6 102553777.95945  25044669.273    25044677.430          37.200
        31.900
 22  1  1  0 22  0.0000000  0 10G13G30G17G21G27G08G01G07G14G10
 128572911.927 6 100186720.17542  24466616.695    24466621.395          38.700
        17.400
 111952921.991 8  87236081.79046  21303925.203    21303933.125          49.800
        41.200
 123035896.574 7  95872248.97644  23412974.117    23412979.988          44.100
        29.500
 109722103.647 8  85497791.95347  20879410.383    20879415.141          50.000
        42.500
 129879600.990 5 101204921.54145  24715246.969    24715254.188          35.800
        31.500
 115550853.420 7  90039719.28947  21988588.367    21988596.875          46.000
        46.700
 108339853.081 8  84420713.19546  20616379.109    20616387.852          50.200
        41.900
 112784986.514 8  87884412.18446  21462257.086    21462263.016          48.100
        38.000
 115116194.656 7  89700856.74946  21905856.258    21905861.895          46.700
        36.000
 131628903.562 6 102568014.77045  25048148.289    25048154.746          39.800
        34.000
 22  1  1  0 22 30.0000000  0 10G13G30G17G21G27G08G01G07G14G10
 128598609.152 6 100206743.93942  24471506.211    24471511.145          37.100
        16.300
 111972088.181 8  87251016.47646  21307572.430    21307580.234          50.600
        41.000
 122955491.921 7  95809596.04544  23397673.945    23397679.406          43.000
        29.800
 109742917.209 8  85514010.32847  20883371.117    20883375.582          50.000
        43.100
 129981057.111 6 101283978.26645  24734552.930    24734560.852          36.000
        31.800
 115628160.736 7  90099958.74547  22003299.656    22003307.754          46.300
        46.700
 108274614.727 8  84369878.13647  20603964.656    20603972.871          50.900
        42.500
 112854180.006 8  87938329.16746  21475424.727    21475429.895          48.300
        38.300
 115039294.381 7  89640934.46045  21891222.063    21891227.816          47.000
        35.900
 131647702.482 6 102582663.29745  25051723.578    25051732.379          36.400
        32.800
 22  1  1  0 23  0.0000000  0 10G13G30G17G21G27G08G01G07G14G10
 128624830.798 6 100227176.38442  24476496.484    24476501.359          38.200
        16.300
 111991850.097 8  87266415.36746  21311333.359    21311340.637          49.600
        41.700
 122875264.446 7  95747081.15144  23382406.500    23382413.016          42.500
        29.300
 109764261.906 8  85530642.56147  20887432.906    20887437.781          50.500
        42.900
 130082502.714 6 101363026.77445  24753857.750    24753864.324          37.100
        31.200
 115705641.977 7  90160333.73947  22018044.141    22018052.063          46.300
        47.000
 108209944.567 8  84319485.82447  20591658.414    20591667.039          51.200
        42.800
 112923835.716 8  87992606.32746  21488678.875    21488685.273          48.300
        37.700
 114962614.147 7  89581183.63645  21876630.766    21876636.871          45.900
        35.900
 131667029.093 6 102597723.00345  25055402.398    25055409.910          38.300
        32.900
 22  1  1  0 23 30.0000000  0 10G13G30G17G21G27G08G01G07G14G10
 128651575.580 6 100248016.49342  24481585.586    24481590.168          38.400
        15.600
 112012207.450 8  87282278.23646  21315206.867    21315214.789          50.200
        40.900
 122795214.598 7  95684704.69744  23367174.203    23367179.781          43.700
        29.900
 109786137.057 8  85547688.14247  20891595.008    20891599.766          50.500
        42.500
 130183937.116 6 101442066.55845  24773160.063    24773166.988          37.300
        31.200
 115783295.967 7  90220843.33947  22032821.039    22032829.430          46.200
        46.800
 108145845.023 8  84269538.14947  20579460.680    20579469.246          50.700
        42.900
 112993951.824 7  88047242.23646  21502021.883    21502028.281          47.600
        37.300
 114886156.048 7  89521605.90945  21862081.227    21862086.805          46.500
        35.600
 131686883.427 6 102613193.92445  25059180.570    25059187.496          37.500
        32.600
 22  1  1  0 24  0.0000000  0 10G13G30G17G21G27G08G01G07G14G10
 128678841.926 6 100269262.99742  24486773.633    24486778.801          38.100
        15.600
 112033159.380 8  87298604.40546  21319193.828    21319202.043          49.600
        41.300
 122715342.971 7  95622467.06944  23351975.219    23351980.504          43.900
        29.300
 109808541.287 8  85565145.99247  20895858.945    20895863.820          49.200
        42.900
 130285359.331 6 101521096.84745  24792459.695    24792466.797          38.100
        30.900
 115861121.822 7  90281486.86047  22047631.117    22047638.805          46.100
        46.900
 108082317.926 8  84220036.53447  20567371.547    20567379.820          50.300
        42.900
 113064525.909 7  88102235.00346  21515451.742    21515457.086          47.900
        37.300
 114809921.724 7  89462202.54546  21847574.320    21847579.840          46.100
        36.000
 131707264.876 6 102629075.56345  25063057.602    25063066.051          36.900
        33.000
 22  1  1  0 24 30.0000000  0 10G13G30G17G21G27G08G01G07G14G10
 128706628.188 6 100290914.61442  24492062.703    24492066.172          38.900
        16.300
 112054705.136 8  87315393.29546  21323293.859    21323302.367          49.000
        41.400
 122635649.826 7  95560368.54145  23336810.734    23336815.668          42.800
        30.100
 109831472.535 8  85583014.50647  20900222.398    20900227.273          49.600
        42.200
 130386768.303 6 101600116.81745  24811756.891    24811765.223          36.900
        31.400
 115939117.579 7  90342262.77147  22062473.180    22062481.219          46.800
        46.600
 108019365.152 8  84170982.45047  20555392.109    20555401.496          51.000
        42.700
 113135555.381 8  88157582.61646  21528968.234    21528974.164          48.000
        37.600
 114733912.793 7  89402974.80746  21833110.469    21833115.813          45.900
        36.200
 131728172.870 6 102645367.51745  25067037.570    25067045.141          39.600
        33.000
 22  1  1  0 25  0.0000000  0 10G13G30G17G21G27G08G01G07G14G10
 128734932.742 6 100312970.13242  24497446.914    24497452.141          38.000
        17.800
 112076843.968 8  87332644.32346  21327506.953    21327514.523          48.300
        41.400
 122556135.743 6  95498409.56344  23321678.359    23321683.996          41.800
        29.500
 109854929.904 8  85601292.98047  20904686.219    20904690.977          48.000
        42.600
 130488163.149 6 101679125.75845  24831052.813    24831060.148          37.000
        31.100
 116017282.002 7  90403170.11147  22077346.664    22077355.172          46.600
        46.200
 107956988.687 8  84122377.43547  20543522.164    20543530.848          50.800
        42.700
 113207038.319 7  88213283.58246  21542571.609    21542577.422          47.800
        38.100
 114658131.069 7  89343924.11846  21818689.586    21818695.047          46.200
        36.500
 131749606.910 6 102662069.36745  25071115.492    25071123.238          39.400
        31.900
 22  1  1  0 25 30.0000000  0 10G13G30G17G21G27G08G01G07G14G10
 128763753.916 6 100335428.20642  24502932.320    24502937.137          38.200
        16.300
 112099575.259 8  87350357.01346  21331832.633    21331840.613          48.000
        41.300
 122476801.166 7  95436590.42844  23306582.156    23306587.676          42.500
        29.500
 109878912.451 8  85619980.68847  20909250.180    20909254.527          48.200
        42.600
 130589543.003 6 101758123.03445  24850344.578    24850352.090          37.300
        31.200
 116095613.956 7  90464207.99247  22092252.906    22092261.004          46.900
        46.400
 107895190.578 8  84074223.08747  20531762.344    20531771.613          51.200
        43.500
 113278972.478 8  88269336.13946  21556259.156    21556265.613          48.200
        37.000
 114582578.293 7  89285051.83546  21804312.445    21804318.082          46.300
        37.100
 131771566.749 6 102679180.92145  25075295.063    25075302.867          39.000
        32.200
 22  1  1  0 26  0.0000000  0 10G13G30G17G21G27G08G01G07G14G10
 128793090.184 6 100358287.60942  24508514.406    24508519.867          37.200
        16.300
 112122898.167 8  87368530.69346  21336270.750    21336278.848          48.200
        41.300
 122397646.509 6  95374911.48644  23291519.094    23291524.730          41.600
        27.500
 109903418.417 8  85639076.24947  20913913.508    20913918.148          48.100
        42.900
 130690906.949 5 101837107.93945  24869632.984    24869641.785          35.500
        30.800
 116174112.063 7  90525375.35447  22107191.047    22107198.852          46.400
        46.100
 107833972.727 8  84026520.88647  20520113.117    20520121.742          50.600
        43.100
 113351355.417 8  88325738.40146  21570033.758    21570039.395          48.500
        36.900
 114507256.302 7  89226359.38846  21789978.719    21789984.707          46.300
        36.800
 131794051.654 6 102696701.65045  25079573.813    25079580.797          38.200
        31.300
 22  1  1  0 26 30.0000000  0 10G13G30G17G21G27G08G01G07G14G10
 128822939.618 6 100381546.87742  24514193.930    24514199.684          37.800
        16.300
 112146811.718 8  87387164.62846  21340821.375    21340829.180          50.300
        41.100
 122318672.153 6  95313373.05444  23276490.625    23276496.438          41.900
        28.100
 109928446.058 8  85658578.31747  20918676.078    20918680.543          50.000
        42.800
 130792253.831 6 101916079.49945  24888919.227    24888926.680          37.000
        31.700
 116252774.777 7  90586670.96647  22122159.508    22122167.840          46.900
        46.100
 107773336.783 8  83979272.11747  20508574.500    20508583.066          51.100
        42.800
 113424184.861 8  88382488.59146  21583893.164    21583898.918          48.000
        36.900
 114432166.627 7  89167847.96246  21775690.383    21775695.609          46.200
        36.300
 131817061.045 6 102714631.03345  25083951.297    25083959.863          37.100
        30.600
 22  1  1  0 27  0.0000000  0 10G13G30G17G21G27G08G01G07G14G10
 128853300.797 6 100405204.92642  24519972.789    24519976.902          39.000
        16.900
 112171315.275 8  87406258.29546  21345484.523    21345492.094          48.200
        40.900
 122239878.588 7  95251975.47644  23261497.156    23261501.738          42.300
        28.900
 109953994.361 8  85678486.09747  20923537.414    20923542.289          48.600
        42.500
 130893582.912 6 101995037.20144  24908200.570    24908208.199          36.900
        28.500
 116331601.087 7  90648094.05947  22137160.031    22137168.012          46.100
        46.200
 107713284.839 8  83932478.41347  20497146.414    20497155.684          51.500
        43.000
 113497458.316 7  88439584.75546  21597836.156    21597842.203          47.900
        37.100
 114357311.240 7  89109519.09546  21761445.102    21761451.090          46.600
        36.500
 131840594.388 6 102732968.69445  25088429.773    25088437.988          39.000
        30.900
 22  1  1  0 27 30.0000000  0 10G13G30G17G21G27G08G01G07G14G10
 128884171.977 6 100429260.42742  24525847.461    24525852.219          38.700
        17.400
 112196407.871 8  87425810.96047  21350259.430    21350267.293          49.700
        42.000
 122161266.329 7  95190719.18444  23246537.406    23246542.574          42.100
        28.300
 109980061.832 8  85698798.42247  20928497.672    20928502.840          50.300
        42.300
 130994893.397 6 102073980.45745  24927479.727    24927487.414          37.400
        31.100
 116410589.384 7  90709643.38147  22152190.688    22152199.313          46.400
        45.800
 107653818.649 8  83886141.13947  20485830.516    20485839.434          51.100
        43.000
 113571173.425 8  88497025.07946  21611864.258    21611869.895          48.000
        37.300
 114282691.804 7  89051374.08646  21747245.625    21747251.027          46.300
        36.300
 131864651.122 6 102751714.21144  25093007.234    25093015.332          38.100
        29.500
 22  1  1  0 28  0.0000000  0 10G13G30G17G21G27G08G01G07G14G10
 128915551.417 6 100453711.90242  24531818.063    24531823.348          38.100
        17.800
 112222088.706 8  87445821.99146  21355146.297    21355154.336          49.500
        41.300
 122082835.614 7  95129604.34644  23231613.016    23231618.418          43.000
        27.800
 110006646.858 8  85719514.03147  20933557.266    20933561.848          50.000
        42.200
 131096184.290 6 102152908.42745  24946754.680    24946762.191          36.600
        30.700
 116489738.379 7  90771317.92147  22167252.422    22167261.340          46.500
        45.500
 107594940.150 8  83840261.80947  20474626.469    20474635.270          51.200
        43.000
 113645327.900 7  88554807.76246  21625974.883    21625981.047          47.500
        37.100
 114208310.184 7  88993414.39446  21733091.398    21733096.977          47.200
        36.900
 131889230.662 6 102770867.10045  25097685.461    25097692.445          37.800
        30.300
 22  1  1  0 28 30.0000000  0 10G13G30G17G21G27G08G01G07G14G10
 128947437.557 6 100478558.22742  24537886.852    24537891.668          38.400
        16.900
 112248356.883 8  87466290.68546  21360145.070    21360152.816          48.100
        41.400
 122004587.079 7  95068631.47044  23216722.805    23216727.211          42.700
        29.400
 110033748.381 8  85740632.10947  20938714.492    20938719.016          48.500
        42.400
 131197454.792 5 102231820.52245  24966025.352    24966032.980          35.800
        30.200
 116569047.418 7  90833117.16347  22182344.398    22182352.438          45.500
        45.900
 107536651.073 8  83794841.77347  20463534.297    20463543.566          51.500
        43.100
 113719919.182 7  88612930.82046  21640169.758    21640175.277          47.900
        37.100
 114134168.107 7  88935641.35846  21718982.242    21718988.465          47.200
        36.200
 131914332.362 6 102790426.87544  25102461.750    25102469.496          36.900
        29.800
 22  1  1  0 29  0.0000000  0 10G13G30G17G21G27G08G01G07G14G10
 128979828.204 6 100503797.69042  24544049.180    24544053.996          38.300
        17.800
 112275211.369 8  87487216.25646  21365255.109    21365262.797          49.700
        41.300
 121926520.748 7  95007800.57944  23201867.250    23201872.359          44.200
        29.800
 110061364.545 8  85762151.20846  20943969.531    20943973.938          49.600
        41.600
 131298703.893 6 102310715.90544  24985292.719    24985299.820          36.600
        27.100
 116648514.618 7  90895039.64547  22197465.977    22197475.012          45.800
        45.300
 107478953.148 8  83749882.36547  20452555.594    20452563.574          51.400
        43.200
 113794945.249 8  88671392.65946  21654446.594    21654451.527          48.000
        37.300
 114060267.339 7  88878056.34646  21704919.523    21704925.570          47.300
        36.400
 131939955.522 6 102810392.98544  25107337.547    25107344.707          37.400
        29.300
 22  1  1  0 29 30.0000000  0 10G13G30G17G21G27G08G01G07G14G10
 129012721.660 6 100529428.95643  24550308.656    24550313.883          38.100
        18.300
 112302651.064 8  87508597.83346  21370476.883    21370484.688          49.900
        41.500
 121848637.295 7  94947112.16844  23187046.117    23187051.637          44.300
        29.800
 110089493.648 8  85784069.99547  20949322.367    20949326.656          50.200
        42.800
 131399930.501 6 102389593.78444  25004556.156    25004563.727          36.100
        29.100
 116728138.541 7  90957084.25147  22212618.375    22212626.941          46.000
        45.400
 107421847.988 8  83705384.85647  20441688.109    20441697.027          51.400
        43.100
 113870403.231 8  88730191.07046  21668805.469    21668811.633          48.700
        37.000
 113986609.469 7  88820660.61246  21690903.320    21690908.488          47.300
        37.300
 131966099.301 6 102830764.77745  25112312.914    25112320.191          38.400
        30.100
 22  1  1  0 30  0.0000000  0 11G19G13G30G17G21G27G08G01G07G14G10
 135289499.68415 105420342.16052  25744721.633    25744725.160          32.400
        16.900
 129046115.986 6 100555450.51043  24556664.852    24556669.023          38.200
        19.300
 112330675.194 8  87530434.80346  21375809.391    21375817.605          50.200
        41.300
 121770937.411 7  94886566.82744  23172259.883    23172265.988          44.100
        28.900
 110118134.371 8  85806387.45147  20954772.547    20954776.953          50.600
        42.700
 131501134.174 5 102468453.72544  25023814.203    25023821.891          34.600
        26.500
 116807918.058 7  91019250.10347  22227800.773    22227807.816          46.300
        45.600
 107365337.464 8  83661350.71247  20430934.250    20430943.520          51.200
        43.300
 113946290.882 8  88789324.28446  21683246.414    21683252.461          48.200
        36.700
 113913196.485 7  88763455.69146  21676932.828    21676938.758          47.500
        36.800
 131992763.203 6 102851541.87344  25117387.000    25117393.926          40.300
        29.500
 22  1  1  0 30 30.0000000  0 11G19G13G30G17G21G27G08G01G07G14G10
 135188139.172 5 105341359.87542  25725433.141    25725437.488          32.300
        15.600
 129080010.544 6 100581861.83643  24563114.453    24563118.742          39.200
        18.300
 112359283.477 8  87552726.95646  21381253.367    21381261.699          50.500
        40.900
 121693421.124 7  94826164.53545  23157509.820    23157515.164          44.700
        30.900
 110147285.822 8  85829102.87047  20960319.328    20960324.438          50.500
        42.100
 131602314.571 5 102547295.62544  25043067.734    25043075.129          35.900
        26.700
 116887852.523 7  91081536.69947  22243010.953    22243018.992          44.900
        45.300
 107309424.086 8  83617781.86147  20420294.313    20420303.172          51.100
        43.400
 114022606.143 7  88848790.70946  21697769.086    21697775.016          47.400
        36.600
 113840030.877 7  88706443.53946  21663009.422    21663015.527          47.500
        36.800
 132019947.192 6 102872724.22844  25122559.648    25122566.574          40.100
        28.400
 22  1  1  0 31  0.0000000  0 11G19G13G30G17G21G27G08G01G07G14G10
 135086816.394 5 105262407.07042  25706152.641    25706156.344          33.000
        15.600
 129114402.237 6 100608660.53743  24569659.875    24569664.105          38.900
        18.600
 112388473.825 8  87575472.67546  21386808.461    21386816.090          50.700
        41.000
 121616088.656 7  94765905.50745  23142793.188    23142799.762          43.900
        30.400
 110176946.045 8  85852214.74046  20965963.883    20965968.641          51.200
        41.800
 131703469.979 6 102626117.96644  25062317.648    25062324.809          37.200
        29.200
 116967939.865 7  91143942.41147  22258251.172    22258259.270          44.900
        45.100
 107254108.443 8  83574678.78247  20409768.250    20409777.402          51.300
        43.600
 114099345.927 7  88908587.91646  21712372.492    21712377.426          47.700
        37.100
 113767113.446 8  88649624.77246  21649134.102    21649140.266          48.100
        37.100
 132047649.545 6 102894310.50844  25127831.531    25127838.516          39.900
        29.300
 22  1  1  0 31 30.0000000  0 11G19G13G30G17G21G27G08G01G07G14G10
 134985532.796 5 105183484.82642  25686879.039    25686883.152          33.700
        16.300
 129149289.709 6 100635845.58043  24576297.508    24576302.090          38.100
        19.000
 112418245.482 8  87598671.36946  21392473.523    21392481.797          50.900
        41.400
 121538940.786 7  94705790.29345  23128112.789    23128118.660          44.100
        31.600
 110207113.513 8  85875721.86647  20971704.227    20971709.395          50.800
        42.600
 131804599.683 6 102704920.29645  25081562.328    25081568.785          37.600
        30.300
 117048178.768 7  91206466.22047  22273520.148    22273528.598          45.600
        45.000
 107199392.500 8  83532043.00747  20399356.344    20399364.969          51.800
        43.600
 114176508.168 8  88968714.30646  21727055.125    21727061.055          48.300
        36.000
 113694446.250 8  88593000.99046  21635306.555    21635311.664          48.000
        36.900
 132075869.718 6 102916300.27144  25133202.258    25133208.188          40.600
        28.900
 22  1  1  0 32  0.0000000  0 11G19G13G30G17G21G27G08G01G07G14G10
 134884288.45215 105104593.21852  25667614.039    25667616.629          33.000
        15.600
 129184670.566 6 100663415.07543  24583030.094    24583035.262          38.900
        18.300
 112448597.150 8  87622322.00146  21398249.750    21398256.910          50.900
        41.000
 121461977.897 7  94645819.24445  23113466.742    23113472.848          43.800
        30.600
 110237786.144 8  85899622.62947  20977540.891    20977545.648          50.800
        42.000
 131905702.530 6 102783701.69845  25100800.852    25100808.129          37.100
        31.000
 117128568.045 7  91269107.21347  22288818.195    22288825.941          44.500
        44.600
 107145277.648 8  83489875.60747  20389058.500    20389067.008          51.100
        43.700
 114254090.008 7  89029167.65146  21741819.188    21741824.238          47.700
        36.000
 113622030.838 7  88536573.39846  21621525.508    21621531.613          47.600
        37.300
 132104606.743 6 102938692.77445  25138669.742    25138676.902          39.800
        30.900
 22  1  1  0 32 30.0000000  0 11G19G13G30G17G21G27G08G01G07G14G10
 134783084.04915                  25648353.523                          31.000

 129220542.930 6 100691367.58843  24589856.633    24589861.508          38.700
        19.000
 112479527.735 8  87646423.75146  21404135.273    21404142.375          50.200
        40.800
 121385199.593 7  94585992.00945  23098856.953    23098861.887          45.000
        31.200
 110268962.353 8  85923915.78547  20983473.750    20983478.742          50.800
        42.500
 132006778.017 6 102862461.81244  25120034.984    25120041.910          36.700
        28.100
 117209106.771 7  91331864.65047  22304143.609    22304152.059          45.100
        44.900
 107091765.562 8  83448177.90047  20378875.555    20378884.004          51.800
        43.600
 114332088.850 8  89089945.95346  21756661.430    21756667.711          48.800
        37.100
 113549869.087 7  88480343.46846  21607794.102    21607799.152          47.500
        37.500
 132133859.822 6 102961487.41744  25144236.570    25144243.730          38.800
        28.700
 22  1  1  0 33  0.0000000  0 10G13G30G17G21G27G08G01G07G14G10
 129256904.934 6 100719701.60143  24596775.820    24596781.047          37.200
        18.600
 112511036.287 8  87670975.85546  21410130.891    21410139.398          50.100
        40.700
 121308606.915 7  94526309.44045  23084281.250    23084287.648          44.700
        30.800
 110300641.052 8  85948600.48647  20989502.008    20989506.707          50.500
        42.700
 132107825.328 5 102941199.94844  25139263.797    25139270.957          35.700
        29.500
 117289793.444 7  91394737.37247  22319497.953    22319506.461          45.000
        44.600
 107038857.993 8  83406951.24247  20368807.523    20368816.266          51.200
        43.800
 114410502.307 7  89151047.32546  21771583.305    21771588.766          47.300
        36.600
 113477962.963 7  88424312.72246  21594110.477    21594116.230          47.900
        37.200
 132163628.282 6 102984683.60344  25149901.758    25149908.918          38.600
        28.400
 22  1  1  0 33 30.0000000  0 11G19G13G30G17G21G27G08G01G07G14G10
 134580791.31515                  25609860.945                          33.300

 129293754.987 6 100748415.89643  24603788.922    24603793.211          38.800
        19.600
 112543121.801 8  87695977.54246  21416236.633    21416244.613          51.000
        40.500
 121232199.944 7  94466771.55145  23069742.172    23069747.457          45.500
        30.200
 110332819.981 8  85973674.98946  20995625.430    20995629.953          50.200
        41.700
 132208843.798 5 103019915.57144  25158485.094    25158494.012          33.000
        26.400
 117370626.740 7  91457724.35647  22334880.086    22334888.008          45.100
        44.400
 106986556.600 8  83366196.92647  20358855.109    20358863.383          51.500
        43.600
 114489328.093 8  89212469.98046  21786583.688    21786589.500          48.300
        36.700
 113406314.392 8  88368482.67546  21580477.148    21580482.434          48.000
        37.500
 132193911.529 6 103008280.94845  25155664.398    25155671.676          37.300
        30.400
 22  1  1  0 34  0.0000000  0 11G19G13G30G17G21G27G08G01G07G14G10
 134479711.53315                  25590626.055                          35.400

 129331091.078 6 100777508.96243  24610894.109    24610898.809          38.000
        18.300
 112575783.083 8  87721427.88546  21422452.219    21422459.613          49.900
        40.300
 121155979.343 7  94407378.89245  23055237.688    23055243.793          44.600
        31.300
 110365498.071 8  85999138.43046  21001844.117    21001848.992          50.300
        41.800
 132309832.626 5 103098608.11444  25177704.031    25177711.777          34.600
        25.800
 117451605.945 7  91520825.03247  22350290.266    22350298.129          45.200
        44.600
 106934862.964 8  83325916.19347  20349017.867    20349027.078          51.900
        43.100
 114568563.928 8  89274212.16346  21801661.672    21801666.664          48.200
        36.900
 113334925.188 7  88312854.72246  21566891.484    21566897.883          46.700
        37.500
 132224708.503 5 103032278.58244  25161523.719    25161532.637          34.100
        28.400
 22  1  1  0 34 30.0000000  0 11G19G13G30G17G21G27G08G01G07G14G10
 134378674.721 5 104710613.89452  25571398.875    25571402.695          34.900
        12.600
 129368911.225 6 100806979.16743  24618090.172    24618095.340          37.100
        19.000
 112609018.826 8  87747325.85546  21428776.594    21428784.398          50.200
        40.600
 121079945.521 7  94348131.77945  23040768.773    23040773.766          44.800
        30.300
 110398673.278 8  86024989.24747  21008156.930    21008161.746          50.000
        42.700
 132410790.860 5 103177276.83944  25196915.914    25196923.660          33.900
        25.600
 117532729.353 7  91584038.06847  22365727.695    22365735.676          43.600
        44.600
 106883778.444 8  83286110.09147  20339296.711    20339305.746          51.600
        43.800
 114648206.704 7  89336271.45146  21816816.758    21816822.980          46.300
        37.100
 113263797.039 8  88257430.19846  21553356.672    21553362.426          48.000
        37.600
 132256018.286 5 103056675.82644  25167481.070    25167490.047          33.400
        29.300
 22  1  1  0 35  0.0000000  0 11G19G13G30G17G21G27G08G01G07G14G10
 134277681.679 5 104631917.98152  25552179.484    25552185.180          34.600
        13.900
 129407213.169 6 100836824.84142  24625378.922    24625384.383          36.400
        17.800
 112642827.722 8  87773670.43346  21435209.922    21435217.961          50.000
        40.600
 121004098.717 7  94289030.39545  23026335.422    23026341.000          44.600
        30.900
 110432344.361 8  86051226.46247  21014564.297    21014569.465          50.800
        42.600
 132511717.617 5 103255921.06644  25216122.586    25216129.160          35.500
        27.400
 117613995.951 7  91647362.67947  22381191.789    22381200.121          45.400
        44.200
 106833304.488 8  83246779.75147  20329691.844    20329700.469          51.800
        43.900
 114728253.910 7  89398645.86646  21832050.078    21832055.305          47.800
        36.500
 113192931.684 7  88202210.43946  21539871.078    21539877.125          47.000
        37.700
 132287839.968 5 103081471.94444  25173538.633    25173546.262          35.000
        29.600
 22  1  1  0 35 30.0000000  0 11G19G13G30G17G21G27G08G01G07G14G10
 134176732.551 5 104553256.31843  25532971.102    25532974.805          35.500
        20.600
 129445994.874 6 100867044.34542  24632758.883    24632763.934          36.000
        16.900
 112677208.369 8  87800460.54046  21441752.844    21441760.941          50.600
        40.800
 120928439.300 7  94230075.02845  23011938.094    23011943.379          44.100
        30.000
 110466509.059 8  86077848.31447  21021065.766    21021070.523          50.700
        42.300
 132612611.98015 103334539.98054  25235323.023    25235328.953          34.800
        27.300
 117695404.174 7  91710797.64147  22396683.117    22396691.391          45.100
        44.600
 106783442.364 8  83207926.16647  20320203.484    20320212.051          52.300
        43.900
 114808702.820 7  89461333.30846  21847358.023    21847364.129          47.300
        36.200
 113122330.813 7  88147196.78346  21526436.281    21526442.152          47.300
        37.400
 132320172.356 5 103106665.98844  25179691.172    25179698.742          34.900
        29.100
 22  1  1  0 36  0.0000000  0 11G19G13G30G17G21G27G08G01G07G14G10
 134075828.944 5 104474630.17643  25513768.344    25513773.512          35.500
        18.300
 129485254.809 5 100897636.49942  24640229.008    24640235.113          34.000
        16.300
 112712160.021 8  87827695.57846  21448403.625    21448411.664          50.300
        40.700
 120852967.458 7  94171265.81145  22997576.203    22997581.957          44.100
        30.200
 110501166.214 8  86104853.89747  21027660.672    21027665.898          49.800
        42.600
 132713473.737 6 103413133.52744  25254515.383    25254522.191          37.000
        28.300
 117776953.292 7  91774342.39947  22412201.711    22412210.102          45.300
        44.900
 106734194.159 8  83169550.96547  20310831.891    20310840.398          51.000
        43.900
 114889551.226 7  89524332.02545  21862742.875    21862748.922          47.500
        35.500
 113051996.877 7  88092391.12246  21513052.094    21513057.789          46.700
        38.300
 132353015.042 6 103132257.68044  25185940.797    25185948.250          37.100
        29.500
 22  1  1  0 36 30.0000000  0 11G19G13G30G17G21G27G08G01G07G14G10
 133974970.728 5 104396039.34943  25494576.258    25494581.309          34.800
        19.300
 129524990.474 5 100928599.22842  24647789.430    24647796.297          33.500
        16.300
 112747681.091 8  87855374.32946  21455162.672    21455171.004          49.500
        40.200
 120777683.785 7  94112603.23644  22983250.273    22983255.383          43.200
        29.900
 110536313.774 8  86132241.60947  21034349.406    21034354.281          50.200
        42.200
 132814301.661 5 103491700.68144  25273700.852    25273709.066          34.600
        27.700
 117858641.773 7  91837995.75247  22427746.211    22427754.484          44.700
        44.100
 106685560.799 8  83131654.85747  20301577.359    20301586.043          51.100
        44.300
 114970796.389 7  89587639.93745  21878204.297    21878209.348          47.000
        35.900
 112981931.166 7  88037794.47046  21499718.805    21499724.500          47.500
        37.400
 132386366.767 5 103158246.00244  25192286.227    25192294.617          33.100
        28.900
 22  1  1  0 37  0.0000000  0 11G19G13G30G17G21G27G08G01G07G14G10
 133874159.177 6 104317484.91243  25475393.469    25475396.762          36.500
        21.300
 129565200.091 5 100959931.45542  24655442.289    24655447.984          32.800
        14.800
 112783770.432 8  87883495.88046  21462031.063    21462038.633          50.500
        41.000
 120702588.442 7  94054087.40645  22968960.039    22968965.441          42.500
        31.400
 110571950.164 8  86160010.23547  21041130.289    21041135.223          50.400
        42.300
 132915095.330 5 103570241.16244  25292883.109    25292889.977          35.400
        27.900
 117940468.534 7  91901756.85047  22443316.797    22443325.773          44.900
        44.300
 106637543.937 8  83094239.14147  20292439.500    20292448.359          51.100
        44.000
 115052436.000 7  89651255.18046  21893739.195    21893744.715          46.200
        36.800
 112912135.820 8  87983408.49446  21486437.320    21486442.957          48.000
        37.900
 132420226.640 5 103184630.31145  25198730.703    25198738.391          32.500
        30.200
 22  1  1  0 37 30.0000000  0 11G19G13G30G17G21G27G08G01G07G14G10
 133773394.808 5 104238967.27943  25456217.703    25456222.051          34.100
        20.400
 129605881.23315 100991630.98952  24663182.281    24663189.324          33.900
        13.900
 112820426.598 8  87912059.11946  21469006.422    21469014.344          50.300
        40.200
 120627681.992 7  93995718.78145  22954705.867    22954711.094          44.900
        31.200
 110608074.121 8  86188158.77747  21048004.664    21048009.246          50.000
        42.000
 133015853.822 5 103648754.22744  25312056.977    25312063.961          34.000
        27.900
 118022432.667 7  91965625.00447  22458914.672    22458923.121          44.600
        44.300
 106590144.840 8  83057304.79847  20283420.242    20283428.516          51.200
        44.000
 115134467.149 7  89715175.53146  21909349.438    21909354.840          47.000
        36.100
 112842612.564 8  87929234.52346  21473207.438    21473213.543          48.100
        37.500
 132454593.61916 103211409.77554  25205271.117    25205278.160          36.400
        29.900
 22  1  1  0 38  0.0000000  0 11G19G13G30G17G21G27G08G01G07G14G10
 133672678.48515 104160487.04253  25437051.398    25437056.215          31.000
        18.300
 129647031.879 5 101023696.40142  24671014.961    24671020.305          33.700
        15.600
 112857648.124 8  87941062.89746  21476089.492    21476097.355          49.600
        40.000
 120552964.513 7  93937497.40645  22940488.203    22940492.785          43.500
        31.200
 110644683.241 8  86216685.37047  21054971.023    21054975.605          49.900
        42.300
 133116576.247 5 103727239.12244  25331223.906    25331230.891          32.800
        26.400
 118104532.242 7  92029598.68447  22474537.711    22474545.281          45.100
        43.400
 106543364.578 8  83020852.65747  20274518.164    20274526.906          51.900
        43.900
 115216887.147 7  89779398.88245  21925033.797    21925039.668          46.900
        34.600
 112773363.121 8  87875273.93046  21460030.117    21460035.461          48.100
        38.300
 132489466.460 5 103238583.39145  25211906.953    25211913.996          34.600
        31.600
 22  1  1  0 38 30.0000000  0 11G19G13G30G17G21G27G08G01G07G14G10
 133572010.69215 104082044.73952  25417896.688    25417899.746          31.800
        16.900
 129688649.946 5 101056126.04742  24678932.703    24678940.098          33.300
        13.900
 112895433.576 8  87970506.09246  21483280.055    21483288.035          49.100
        40.200
 120478436.280 7  93879423.48245  22926305.344    22926311.215          44.400
        31.200
 110681775.814 8  86245588.67647  21062029.359    21062033.648          49.500
        42.500
 133217261.769 5 103805695.28944  25350383.734    25350390.895          32.600
        26.000
 118186766.681 7  92093677.46247  22490186.094    22490194.367          43.900
        43.600
 106497204.752 8  82984883.98247  20265734.148    20265743.066          51.900
        44.100
 115299693.240 7  89843923.07745  21940790.734    21940796.605          45.900
        35.000
 112704389.275 7  87821528.08346  21446904.500    21446909.785          47.800
        38.300
 132524844.166 5 103266150.42345  25218638.672    25218646.301          35.400
        31.500
 22  1  1  0 39  0.0000000  0 11G19G13G30G17G21G27G08G01G07G14G10
 133471392.094 5 104003640.61242  25398748.211    25398752.500          33.100
        17.400
 129730732.977 5 101088917.97942  24686942.227    24686947.395          33.800
        14.800
 112933781.537 7  88000387.60246  21490576.438    21490585.238          47.500
        39.800
 120404097.936 7  93821497.51945  22912159.273    22912165.086          44.900
        32.300
 110719350.109 8  86274867.36147  21069179.867    21069185.094          49.100
        42.200
 133317909.719 5 103884122.18844  25369535.703    25369543.391          32.600
        25.500
 118269134.641 7  92157860.27747  22505860.516    22505868.496          44.800
        43.700
 106451666.448 8  82949399.60747  20257068.539    20257077.516          52.300
        43.600
 115382882.895 7  89908746.16545  21956621.344    21956627.449          47.000
        35.600
 112635692.889 8  87767998.43546  21433831.906    21433837.719          48.100
        37.600
 132560725.647 6 103294110.03145  25225467.227    25225474.738          37.900
        32.200
 22  1  1  0 39 30.0000000  0 11G19G13G30G17G21G27G08G01G07G14G10
 133370823.496 5 103925275.54343  25379612.125    25379615.125          34.700
        18.600
 129773279.484 5 101122071.11842  24695036.914    24695044.367          33.400
        12.600
 112972690.688 8  88030706.41146  21497981.406    21497989.328          49.200
        40.600
 120329949.826 7  93763719.81145  22898049.852    22898054.609          45.000
        31.400
 110757404.337 8  86304520.00946  21076420.797    21076425.848          49.500
        41.800
 133418519.346 5 103962519.19644  25388680.133    25388687.879          33.400
        25.000
 118351634.793 7  92222146.09847  22521560.016    22521568.055          44.400
        44.100
 106406751.123 8  82914400.66447  20248521.531    20248530.039          52.700
        43.600
 115466453.540 7  89973866.12245  21972524.492    21972530.246          46.400
        35.300
 112567275.911 7  87714686.51046  21420813.047    21420818.625          47.600
        38.500
 132597109.950 6 103322461.44045  25232390.094    25232398.016          37.900
        32.300
 22  1  1  0 40  0.0000000  0 11G19G13G30G17G21G27G08G01G07G14G10
 133270305.483 6 103846949.82643  25360483.914    25360487.559          36.800
        20.400
 129816286.637 5 101155583.20542  24703223.016    24703228.711          35.400
        15.600
 113012159.473 8  88061461.29646  21505491.719    21505500.285          49.100
        40.400
 120255991.933 7  93706090.31545  22883975.656    22883980.473          44.300
        30.900
 110795936.506 8  86334545.07646  21083753.664    21083758.129          50.000
        41.700
 133519089.99515 104040885.83254  25407817.078    25407826.523          33.700
        24.900
 118434266.219 7  92286534.21847  22537283.602    22537292.285          43.600
        44.100
 106362459.818 8  82879887.97447  20240092.875    20240101.910          52.400
        44.300
 115550402.272 7  90039280.69445  21988499.367    21988504.652          45.900
        34.900
 112499140.038 7  87661593.63546  21407846.859    21407852.672          47.600
        38.100
 132633995.748 6 103351203.62845  25239409.313    25239417.469          37.100
        33.600
 22  1  1  0 40 30.0000000  0 11G19G13G30G17G21G27G08G01G07G14G10
 133169839.458 5 103768664.65742  25341364.422    25341369.473          34.900
        17.800
 129859752.776 5 101189452.89142  24711494.641    24711499.750          34.800
        12.600
 113052186.847 8  88092651.43746  21513109.242    21513116.637          48.400
        40.200
 120182224.640 7  93648609.34145  22869938.250    22869943.711          45.500
        31.500
 110834945.372 8  86364941.59847  21091176.555    21091181.430          49.100
        42.200
 133619621.36015 104119221.88453  25426947.992    25426957.086          33.400
        22.500
 118517027.943 7  92351023.86047  22553032.547    22553040.879          44.700
        43.000
 106318794.218 8  82845862.84647  20231783.375    20231791.824          52.600
        44.400
 115634726.852 7  90104988.10945  22004546.133    22004551.359          45.800
        35.700
 112431287.589 7  87608721.59846  21394935.109    21394940.863          47.600
        38.800
 132671382.366 6 103380336.05845  25246524.688    25246532.316          37.600
        34.100
 22  1  1  0 41  0.0000000  0 11G19G13G30G17G21G27G08G01G07G14G10
 133069425.713 6 103690420.24443  25322257.711    25322260.535          36.900
        20.400
 129903675.434 5 101223678.37842  24719852.906    24719858.074          35.400
        13.900
 113092770.994 8  88124275.43646  21520831.555    21520839.477          48.800
        40.000
 120108648.298 7  93591277.16145  22855936.641    22855941.926          44.600
        32.100
 110874428.790 8  86395707.90647  21098690.234    21098695.227          50.500
        42.200
 133720112.31215 104197526.46054  25446071.875    25446080.734          35.700
        25.900
 118599918.501 7  92415613.89347  22568806.500    22568815.008          45.200
        43.100
 106275755.221 8  82812325.98247  20223593.531    20223602.332          52.100
        44.100
 115719424.184 7  90170986.02945  22020663.266    22020668.844          46.200
        34.800
 112363720.096 7  87556071.60746  21382077.648    21382083.402          47.300
        38.800
 132709268.414 6 103409857.67645  25253732.961    25253740.941          37.700
        33.700
 22  1  1  0 41 30.0000000  0 11G19G13G30G17G21G27G08G01G07G14G10
 132969064.781 6 103612216.95342  25303158.805    25303162.918          37.000
        16.300
 129948052.254 5 101258257.64042  24728297.109    24728302.160          35.800
        15.600
 113133910.297 7  88156332.02046  21528659.984    21528668.434          46.800
        39.600
 120035263.328 7  93534094.08745  22841971.789    22841976.957          43.600
        31.200
 110914384.600 8  86426842.30547  21106293.367    21106297.832          48.000
        42.000
 133820562.108 5 104275798.93844  25465189.125    25465196.285          34.400
        26.400
 118682936.336 7  92480303.11447  22584604.867    22584612.730          42.500
        43.500
 106233343.663 8  82779278.02747  20215522.906    20215531.766          52.000
        44.100
 115804491.713 7  90237272.39445  22036850.828    22036856.758          44.900
        35.300
 112296439.225 7  87503644.96046  21369274.227    21369280.625          47.600
        38.400
 132747652.530 6 103439767.37545  25261037.820    25261045.625          40.400
        33.900
 22  1  1  0 42  0.0000000  0 11G19G13G30G17G21G27G08G01G07G14G10
 132868757.265 6 103534055.16442  25284071.000    25284073.941          38.100
        15.600
 129992881.112 6 101293189.31642  24736827.180    24736832.699          36.300
        15.600
 113175603.294 7  88188820.05646  21536594.695    21536602.441          47.300
        39.400
 119962070.261 7  93477060.56745  22828043.594    22828049.582          43.900
        32.200
 110954811.360 7  86458343.68546  21113986.227    21113991.336          47.900
        41.700
 133920970.165 5 104354038.96743  25484293.797    25484302.305          34.300
        23.300
 118766081.117 7  92545091.24847  22600426.438    22600433.949          44.500
        42.600
 106191561.112 8  82746720.20647  20207572.031    20207580.832          51.800
        44.200
 115889926.612 7  90303845.00645  22053108.289    22053114.277          45.800
        34.800
 112229447.032 7  87451443.25646  21356526.680    21356531.906          47.900
        38.500
 132786533.669 6 103470064.35645  25268436.016    25268444.465          40.400
        34.100
 22  1  1  0 42 30.0000000  0 11G19G13G30G17G21G27G08G01G07G14G10
 132768503.874 6 103455935.48842  25264994.547    25264997.547          39.900
        14.800
 130038159.583 6 101328471.22242  24745442.664    24745448.711          36.700
        14.800
 113217848.149 7  88221738.10846  21544633.094    21544640.898          47.200
        39.700
 119889068.952 7  93420176.45045  22814151.648    22814156.992          43.400
        31.500
 110995707.073 7  86490210.47247  21121768.906    21121773.137          47.900
        42.000
 134021335.327 5 104432245.44144  25503393.258    25503401.824          32.800
        25.500
 118849351.253 7  92609977.05747  22616272.117    22616280.918          42.300
        42.600
 106150408.282 8  82714653.08547  20199740.750    20199749.316          51.900
        44.400
 115975725.967 7  90370701.62245  22069435.563    22069441.785          44.900
        34.000
 112162745.126 8  87399467.75346  21343832.930    21343838.508          48.000
        38.400
 132825910.337 6 103500747.48645  25275929.109    25275937.090          38.400
        32.500
 22  1  1  0 43  0.0000000  0 11G19G13G30G17G21G27G08G01G07G14G10
 132668305.846 6 103377859.05843  25245926.617    25245929.793          37.300
        19.600
 130083886.074 5 101364102.21442  24754146.258    24754151.016          35.700
        14.800
 113260644.086 7  88255085.58046  21552777.273    21552784.961          47.200
        40.100
 119816260.065 7  93363442.28945  22800297.602    22800302.887          43.600
        32.600
 111037069.704 8  86522441.10047  21129640.219    21129643.980          48.100
        42.100
 134121657.989 5 104510418.87844  25522484.367    25522492.406          33.600
        26.000
 118932746.052 7  92674960.00947  22632141.102    22632150.078          43.600
        43.200
 106109887.030 8  82683078.09547  20192029.609    20192038.762          51.300
        43.800
 116061887.858 7  90437840.73045  22085831.711    22085837.816          46.300
        34.600
 112096336.096 7  87347720.47046  21331195.977    21331201.730          47.500
        38.700
 132865782.076 6 103531816.38845  25283516.547    25283523.707          38.300
        31.500
 22  1  1  0 43 30.0000000  0 11G19G13G30G17G21G27G08G01G07G14G10
 132568163.972 5 103299826.44442  25226870.086    25226874.316          34.000
        17.400
 130130058.121 5 101400080.43742  24762930.766    24762936.813          34.800
        15.600
 113303989.220 8  88288860.98746  21561024.766    21561033.273          48.500
        40.200
 119743643.712 7  93306858.14545  22786478.523    22786483.516          43.000
        32.800
 111078898.030 8  86555034.60946  21137599.414    21137604.055          49.800
        41.600
 134221937.14315 104588558.41554  25541565.453    25541574.781          32.600
        26.000
 119016264.056 7  92740038.96147  22648034.117    22648042.801          42.200
        42.500
 106069998.122 8  82651995.84047  20184439.102    20184447.844          50.500
        44.300
 116148409.016 7  90505259.78845  22102296.281    22102301.801          45.800
        34.800
 112030221.549 7  87296202.64346  21318614.773    21318620.352          47.000
        38.900
 132906147.357 6 103563269.84145  25291198.344    25291205.973          40.800
        31.800
 22  1  1  0 44  0.0000000  0 11G19G13G30G17G21G27G08G01G07G14G10
 132468078.92615                  25207825.727                          30.700

 130176672.994 6 101436403.74742  24771802.469    24771807.637          36.100
        15.600
 113347881.488 8  88323062.74146  21569378.016    21569385.879          48.800
        40.500
 119671220.087 7  93250424.18245  22772697.117    22772702.109          43.400
        32.200
 111121189.568 8  86587989.05946  21145647.109    21145651.633          50.100
        41.600
 134322171.512 5 104666662.96443  25560640.875    25560648.328          33.700
        23.800
 119099904.139 7  92805213.04147  22663950.953    22663958.699          42.600
        43.400
 106030742.176 8  82621406.80247  20176969.461    20176977.852          50.300
        44.600
 116235286.344 7  90572956.37145  22118828.367    22118834.707          45.000
        35.100
 111964402.852 7  87244915.35146  21306090.047    21306095.449          47.200
        39.700
 132947004.459 6 103595106.54145  25298972.906    25298980.594          40.400
        31.000
 22  1  1  0 44 30.0000000  0 10G13G30G17G21G27G08G01G07G14G10
 130223728.285 6 101473070.15142  24780754.836    24780761.879          36.300
        14.800
 113392319.500 8  88357689.74646  21577833.945    21577841.867          49.900
        39.900
 119598989.601 7  93194140.70245  22758952.016    22758957.242          44.300
        32.400
 111163942.569 8  86621303.09046  21153782.531    21153787.582          49.300
        41.700
 134422360.686 5 104744732.33444  25579705.773    25579714.809          34.700
        26.000
 119183664.996 7  92870481.22347  22679890.328    22679897.898          42.600
        43.300
 105992120.469 8  82591311.97947  20169619.883    20169628.332          50.700
        44.400
 116322517.565 7  90640928.71045  22135428.016    22135433.652          45.500
        33.600
 111898882.222 7  87193860.32446  21293622.086    21293627.723          46.500
        38.800
 132988352.443 6 103627325.77344  25306841.398    25306848.441          40.300
        29.300
 22  1  1  0 45  0.0000000  0 10G13G30G17G21G27G08G01G07G14G10
 130271221.722 5 101510078.00642  24789794.211    24789799.672          34.600
        16.300
 113437301.445 8  88392740.59346  21586393.891    21586401.461          49.400
        40.100
 119526952.534 7  93138007.95845  22745243.477    22745248.938          44.900
        32.100
 111207154.843 8  86654974.99546  21162006.070    21162010.535          50.300
        41.700
 134522504.138 5 104822766.09943  25598761.852    25598771.238          33.400
        22.300
 119267545.986 7  92935843.02147  22695851.641    22695860.617          42.300
        42.900
 105954133.807 8  82561711.99647  20162390.961    20162399.117          51.500
        45.100
 116410099.710 7  90709174.50945  22152095.141    22152100.777          45.800
        33.800
 111833661.340 7  87143038.86146  21281211.070    21281216.531          47.000
        39.200
 133030189.795 6 103659926.30244  25314802.555    25314809.715          39.400
        28.000
 22  1  1  0 45 30.0000000  0 11G19G13G30G17G21G27G08G01G07G14G10
 132168018.83915                  25150753.422                          32.600

 130319151.370 5 101547425.78042  24798915.570    24798920.152          34.500
        16.900
 113482825.962 8  88428214.23646  21595056.672    21595064.711          48.700
        40.000
 119455110.000 7  93082026.77745  22731572.422    22731577.766          45.100
        31.900
 111250824.985 8  86689003.68046  21170315.477    21170320.410          50.400
        41.800
 134622601.616 5 104900764.15543  25617810.289    25617819.324          33.800
        23.000
 119351545.554 7  93001297.22847  22711836.047    22711844.555          43.400
        42.800
 105916783.524 8  82532607.89347  20155283.656    20155292.516          51.400
        44.400
 116498030.289 7  90777691.82745  22168826.414    22168832.988          45.600
        32.700
 111768742.432 7  87092452.70246  21268856.758    21268862.688          47.300
        38.900
 133072515.556 6 103692907.45244  25322858.211    25322863.906          39.200
        24.800
 22  1  1  0 46  0.0000000  0 11G19G13G30G17G21G27G08G01G07G14G10
 132068166.991 6 102910338.82453  25131752.445    25131755.797          36.100
        21.800
 130367514.814 5 101585111.51342  24808117.719    24808123.941          35.100
        14.800
 113528891.457 8  88464109.40146  21603822.734    21603830.949          49.500
        39.600
 119383461.111 7  93026196.49845  22717938.195    22717943.539          44.200
        32.700
 111294951.046 8  86723387.62746  21178713.102    21178717.801          50.200
        41.300
 134722652.278 5 104978725.61544  25636849.992    25636857.855          34.300
        25.400
 119435663.325 7  93066843.53247  22727843.789    22727852.648          44.000
        43.200
 105880070.655 8  82504000.47947  20148297.383    20148305.832          51.000
        44.700
 116586306.571 7  90846478.51545  22185625.938    22185631.926          45.800
        34.000
 111704127.475 7  87042103.38746  21256561.328    21256566.613          47.100
        39.400
 133115328.405 5 103726268.14943  25331004.367    25331010.824          35.400
        22.300
 22  1  1  0 46 30.0000000  0 11G19G13G30G17G21G27G08G01G07G14G10
 131968375.686 6 102832579.37943  25112761.734    25112766.434          37.200
        22.300
 130416310.017 5 101623133.74642  24817404.625    24817408.914          35.200
        15.600
 113575496.383 8  88500424.91346  21612691.422    21612699.520          49.300
        39.800
 119312006.980 7  92970517.97145  22704340.313    22704345.891          44.300
        32.800
 111339531.252 8  86758125.45346  21187196.477    21187201.000          50.600
        41.700
 134822655.942 5 105056650.49844  25655880.867    25655888.672          35.400
        25.500
 119519897.835 7  93132480.79547  22743871.656    22743880.984          43.300
        42.300
 105843996.211 8  82475890.53147  20141432.727    20141441.293          51.500
        44.300
 116674925.487 7  90915532.18445  22202489.445    22202495.375          45.200
        33.800
 111639818.479 7  86991992.48546  21244323.039    21244328.910          46.600
        39.400
 133158627.330 5 103760007.64543  25339242.727    25339249.301          34.200
        20.400
 22  1  1  0 47  0.0000000  0 11G19G13G30G17G21G27G08G01G07G14G10
 131868644.896 6 102754867.04844  25093784.094    25093788.148          38.600
        25.200
 130465533.637 6 101661489.78342  24826770.477    24826774.648          36.900
        15.600
 113622638.168 7  88537158.74346  21621661.922    21621670.547          46.700
        39.800
 119240747.259 7  92914990.93845  22690780.211    22690785.965          44.400
        32.800
 111384563.017 7  86793215.14147  21195765.344    21195769.926          47.800
        42.100
 134922611.089 6 105134537.63744  25674901.359    25674908.988          37.100
        27.800
 119604247.930 7  93198208.13547  22759924.328    22759932.777          43.500
        42.600
 105808560.312 8  82448278.15347  20134689.500    20134697.773          50.100
        44.500
 116763884.180 7  90984850.60645  22219417.750    22219423.621          44.900
        34.500
 111575816.569 7  86942120.87246  21232144.258    21232149.777          46.600
        39.500
 133202410.065 5 103794124.10843  25347574.039    25347581.375          33.900
        20.400
 22  1  1  0 47 30.0000000  0 11G19G13G30G17G21G27G08G01G07G14G10
 131768975.547 6 102677202.59043  25074817.805    25074821.859          38.800
        22.300
 130515183.597 6 101700178.05742  24836218.859    24836223.207          36.700
        16.300
 113670315.319 7  88574309.75446  21630735.000    21630743.391          47.800
        39.400
 119169682.563 7  92859615.87645  22677257.914    22677262.613          44.200
        32.400
 111430044.409 8  86828655.19246  21204420.195    21204425.305          49.000
        41.600
 135022517.323 5 105212386.62944  25693912.930    25693920.148          34.700
        24.900
 119688712.661 7  93264024.78247  22775998.156    22776005.434          43.400
        42.900
 105773764.108 8  82421164.23947  20128067.508    20128076.367          51.300
        44.500
 116853179.921 7  91054431.69245  22236409.859    22236416.023          44.800
        32.800
 111512123.866 7  86892490.20546  21220024.055    21220029.691          46.700
        39.200
 133246675.42514                  25355994.922                          25.300

 22  1  1  0 48  0.0000000  0 10G19G13G30G17G21G27G08G01G07G14
 131669368.691 5 102599586.91443  25055862.141    25055867.426          35.900
        20.400
 130565258.133 6 101739197.18142  24845747.359    24845752.469          37.700
        16.300
 113718526.552 8  88611876.93746  21639909.539    21639917.168          48.900
        39.600
 119098813.253 7  92804393.05645  22663771.344    22663776.336          45.200
        32.100
 111475974.079 8  86864444.55447  21213160.633    21213165.566          50.100
        42.000
 135122374.563 5 105290197.42243  25712913.391    25712923.012          32.600
        22.500
 119773291.094 7  93329930.05647  22792091.875    22792100.383          42.600
        42.600
 105739608.813 8  82394549.73547  20121568.031    20121576.188          52.000
        44.400
 116942810.060 7  91124273.30845  22253465.672    22253472.188          44.000
        33.700
 111448742.746 8  86843102.32946  21207963.148    21207968.609          48.200
        39.600
 22  1  1  0 48 30.0000000  0 10G19G13G30G17G21G27G08G01G07G14
 131569825.067 5 102522020.49343  25036919.852    25036924.434          35.200
        18.600
 130615754.452 6 101778544.91842  24855355.711    24855361.699          36.800
        16.300
 113767269.801 8  88649858.67046  21649184.797    21649192.953          49.100
        39.500
 119028139.485 7  92749322.61245  22650322.602    22650327.652          44.900
        33.200
 111522349.891 8  86900581.55046  21221985.859    21221990.324          50.300
        41.600
 135222182.290 5 105367969.66443  25731909.180    25731915.637          32.200
        19.900
 119857981.985 7  93395922.96947  22808208.758    22808216.504          42.600
        42.200
 105706095.122 8  82368435.18547  20115191.078    20115199.527          51.700
        44.600
 117032771.913 7  91194373.43445  22270584.617    22270591.133          44.500
        31.900
 111385674.864 8  86793958.52446  21195961.805    21195967.090          48.100
        39.600
 22  1  1  0 49  0.0000000  0 11G19G13G30G17G21G27G08G01G07G14G10
 131470344.906 5 102444503.50942  25017988.828    25017993.293          34.200
        16.900
 130666669.678 6 101818219.17542  24865045.813    24865050.336          38.300
        16.300
 113816542.956 8  88688253.32546  21658560.742    21658569.309          48.400
        39.200
 118957661.397 7  92694404.65245  22636911.172    22636915.988          44.600
        32.700
 111569169.307 8  86937064.20646  21230894.828    21230899.527          50.100
        41.400
 135321939.610 4 105445702.63843  25750892.047    25750898.211          29.900
        19.000
 119942783.796 6  93462002.28847  22824345.133    22824353.875          41.900
        42.100
 105673223.403 8  82342820.86447  20108935.203    20108944.004          50.900
        44.600
 117123062.283 7  91264729.52445  22287767.047    22287772.977          44.500
        33.300
 111322921.806 7  86745060.04446  21184020.008    21184025.703          47.800
        39.500
 133382360.58415 103934328.30254  25381819.078    25381825.242          32.400
        27.500
 22  1  1  0 49 30.0000000  0 11G19G13G30G17G21G27G08G01G07G14G10
 131370929.050 6 102367036.54043  24999072.375    24999075.668          37.300
        19.300
 130718001.339 5 101858217.79542  24874814.188    24874819.004          35.700
        14.800
 113866344.119 8  88727059.40246  21668037.805    21668046.020          48.600
        39.400
 118887379.102 7  92639639.24845  22623536.641    22623542.453          43.900
        33.300
 111616430.175 8  86973890.85746  21239888.273    21239893.031          49.700
        41.200
 135421645.55814 105523395.63752  25769865.484    25769872.410          29.900
        17.400
 120027696.368 7  93528167.92447  22840504.055    22840511.742          42.800
        42.600
 105640994.443 8  82317707.39947  20102802.508    20102810.840          51.000
        44.600
 117213678.080 7  91335339.20745  22305010.563    22305016.551          43.400
        32.100
 111260485.419 8  86696408.31546  21172138.828    21172144.816          48.000
        40.000
 133428543.003 5 103970314.61144  25390604.266    25390613.535          34.100
        29.600
 22  1  1  0 50  0.0000000  0 11G19G13G30G17G21G27G08G01G07G14G10
 131271578.776 5 102289620.75243  24980165.438    24980170.430          35.400
        18.300
 130769747.692 5 101898539.65542  24884660.328    24884666.082          35.100
        14.800
 113916671.997 7  88766275.91446  21677615.242    21677623.574          46.700
        39.000
 118817293.382 7  92585027.02745  22610200.219    22610204.566          45.000
        34.000
 111664131.247 8  87011060.53246  21248965.945    21248969.824          48.300
        41.300
 135521300.21314                  25788828.398                          26.400

 120112718.463 6  93594418.90547  22856682.977    22856691.309          41.800
        42.000
 105609409.460 8  82293095.73547  20096791.867    20096800.902          50.800
        44.600
 117304616.954 7  91406200.61545  22322314.922    22322321.262          43.000
        31.600
 111198368.105 7  86648005.21946  21160318.086    21160324.016          46.800
        39.600
 133475201.425 6 104006671.81445  25399484.398    25399492.320          36.200
        32.200
 22  1  1  0 50 30.0000000  0 10G19G13G30G17G21G08G01G07G14G10
 131172294.772 5 102212256.66642  24961272.281    24961277.039          33.500
        17.400
 130821906.148 6 101939182.62442  24894585.750    24894591.855          36.000
        14.800
 113967524.773 8  88805901.44246  21687292.672    21687299.949          48.600
        39.400
 118747404.643 7  92530568.30445  22596900.711    22596906.406          45.000
        33.200
 111712270.486 8  87048571.63046  21258126.430    21258130.777          49.500
        41.200
 120197849.005 7  93660754.38246  22872882.430    22872890.820          42.300
        41.800
 105578469.260 8  82268986.49647  20090904.305    20090913.164          51.700
        45.200
 117395876.264 7  91477311.75145  22339682.289    22339687.867          44.300
        33.500
 111136571.901 7  86599852.34246  21148558.711    21148564.934          47.600
        39.700
 133522334.294 6 104043398.71845  25408452.992    25408461.559          37.300
        34.400
 22  1  1  0 51  0.0000000  0 10G19G13G30G17G21G08G01G07G14G10
 131073076.841 5 102134943.98442  24942391.164    24942396.098          33.400
        17.800
 130874473.524 6 101980144.29342  24904589.977    24904595.438          36.800
        17.400
 114018899.686 8  88845933.81946  21697068.188    21697076.402          48.100
        38.800
 118677712.433 7  92476262.71345  22583638.391    22583644.203          44.100
        34.200
 111760845.061 8  87086421.94946  21267369.961    21267374.309          49.900
        41.200
 120283086.478 7  93727173.17746  22889103.195    22889111.645          42.700
        41.600
 105548173.664 8  82245379.54647  20085139.141    20085147.648          51.900
        44.800
 117487452.535 7  91548669.81645  22357107.656    22357114.523          42.600
        31.900
 111075097.824 7  86551950.47446  21136861.016    21136866.359          47.600
        40.100
 133569939.438 6 104080493.64745  25417512.789    25417520.477          38.800
        35.000
 22  1  1  0 51 30.0000000  0 10G19G13G30G17G21G08G01G07G14G10
 130973926.100 5 102057683.70142  24923523.836    24923527.949          35.100
        17.400
 130927447.459 5 102021422.65642  24914670.648    24914675.055          35.800
        16.900
 114070795.162 7  88886371.83446  21706943.625    21706951.898          47.900
        38.700
 118608217.022 7  92422110.48045  22570414.563    22570418.910          44.800
        34.400
 111809853.453 8  87124610.31346  21276695.563    21276700.555          49.600
        41.200
 120368430.294 7  93793674.84246  22905343.805    22905351.551          43.400
        41.900
 105518523.628 8  82222275.63347  20079497.117    20079505.977          51.700
        44.600
 117579343.089 7  91620272.81745  22374594.656    22374599.883          44.300
        32.000
 111013948.078 8  86504301.32646  21125224.508    21125230.027          48.000
        39.900
 133618015.498 6 104117955.50346  25426661.695    25426668.797          40.600
        36.200
 22  1  1  0 52  0.0000000  0 10G19G13G30G17G21G08G01G07G14G10
 130874843.31115 101980476.40853  24904669.422    24904673.945          34.900
        19.300
 130980825.575 5 102063015.94742  24924827.852    24924832.844          34.500
        14.800
 114123209.276 7  88927213.98046  21716917.680    21716926.539          47.200
        38.500
 118538918.848 7  92368111.93345  22557226.555    22557232.426          44.900
        34.200
 111859293.521 8  87163135.04546  21286103.609    21286108.602          50.000
        41.400
 120453879.253 7  93860258.44346  22921603.984    22921612.199          42.800
        41.200
 105489519.760 8  82199675.22947  20073977.586    20073986.211          51.200
        44.900
 117671545.102 7  91692118.52545  22392140.117    22392146.105          43.500
        31.600
 110953124.584 7  86456906.39846  21113649.828    21113655.699          47.800
        39.900
 133666560.990 6 104155783.16846  25435898.891    25435906.520          40.200
        36.600
 22  1  1  0 52 30.0000000  0 10G19G13G30G17G21G08G01G07G14G10
 130775828.83515 101903322.30553  24885828.000    24885831.820          34.600
        19.300
 131034605.12115 102104921.95452  24935060.391    24935067.492          32.900
        15.600
 114176139.724 7  88968458.46246  21726990.664    21726998.527          47.700
        38.700
 118469818.012 7  92314267.16045  22544077.469    22544082.930          44.800
        34.100
 111909162.840 8  87201994.25646  21295593.367    21295598.184          49.900
        40.900
 120539432.433 7  93926923.25846  22937883.672    22937891.828          42.200
        40.900
 105461162.324 8  82177578.53747  20068581.836    20068590.344          51.000
        45.100
 117764055.250 7  91764204.32345  22409743.789    22409750.070          43.900
        32.600
 110892628.871 7  86409766.88446  21102138.133    21102143.535          47.300
        40.500
 133715574.055 6 104193975.16145  25445225.539    25445233.520          38.500
        35.500
 22  1  1  0 53  0.0000000  0 11G19G13G03G30G17G21G08G01G07G14G10
 130676883.971 5 101826222.30942  24866998.773    24867002.945          34.300
        15.600
 131088784.38415 102147139.62952  24945372.125    24945376.180          32.900
        15.600
 131684272.88915                  25058680.734                          31.300

 114229585.640 7  89010104.61146  21737161.055    21737168.625          47.900
        38.400
 118400915.730 7  92260577.10245  22530965.211    22530971.082          45.300
        34.500
 111959460.472 8  87241187.21346  21305165.344    21305170.043          49.500
        41.300
 120625089.108 7  93993668.69946  22954183.875    22954191.973          42.500
        41.300
 105433453.042 8  82155986.89447  20063308.922    20063317.078          51.300
        45.100
 117856871.660 7  91836528.76645  22427406.797    22427412.551          44.400
        32.100
 110832463.998 7  86362885.17246  21090689.086    21090694.664          47.900
        39.800
 133765054.166 6 104232531.09745  25454641.805    25454649.492          37.900
        35.700
 22  1  1  0 53 30.0000000  0 11G19G13G03G30G17G21G08G01G07G14G10
 130578009.319 6 101749177.26442  24848183.453    24848187.977          36.300
        17.800
 131143359.513 5 102189665.65842  24955757.438    24955763.250          33.600
        15.600
 131581031.237 5                  25039034.414                          32.300

 114283543.706 7  89052149.84446  21747428.109    21747436.617          47.200
        38.600
 118332210.616 7  92207040.69045  22517891.492    22517896.836          45.200
        34.500
 112010182.708 8  87280711.03646  21314817.234    21314821.582          50.100
        40.900
 120710847.758 7  94060493.61646  22970503.609    22970512.176          42.200
        41.700
 105406391.060 8  82134899.64247  20058158.727    20058167.352          50.300
        44.800
 117949990.440 7  91909088.83845  22445126.422    22445132.352          44.100
        31.800
 110772630.493 7  86316261.66346  21079303.133    21079308.184          46.800
        39.700
 133814998.560 6 104271448.80145  25464146.039    25464153.258          37.800
        34.100
 22  1  1  0 54  0.0000000  0 11G19G13G03G30G17G21G08G01G07G14G10
 130479205.446 5 101672187.28843  24829380.734    24829386.371          35.800
        18.300
 131198328.926 5 102232498.84442  24966216.734    24966223.016          34.000
        16.900
 131477754.79915                  25019381.703                          33.100

 114338012.803 7  89094593.27946  21757793.297    21757801.043          46.200
        37.600
 118263704.254 7  92153659.14045  22504855.664    22504860.246          46.300
        34.700
 112061328.389 8  87320564.81446  21324550.336    21324554.625          48.400
        40.900
 120796707.651 7  94127397.41446  22986841.945    22986849.809          42.800
        41.600
 105379977.811 8  82114317.90147  20053133.016    20053141.289          51.900
        45.300
 118043409.485 7  91981882.84445  22462903.586    22462909.574          45.000
        33.000
 110713131.165 7  86269898.55746  21067980.625    21067986.086          47.500
        39.500
 133865406.305 6 104310727.55145  25473738.250    25473746.172          36.400
        31.300
 22  1  1  0 54 30.0000000  0 11G19G13G03G30G17G21G08G01G07G14G10
 130380472.492 6 101595252.53143  24810593.398    24810597.805          36.900
        18.300
 131253689.466 5 102275636.91442  24976750.398    24976757.617          32.200
        16.300
 131374445.887 5                  24999722.672                          33.400

 114392990.386 7  89137432.93846  21768256.000    21768263.336          46.500
        38.800
 118195396.283 7  92100432.16645  22491856.250    22491862.063          45.600
        34.000
 112112895.596 8  87360747.06046  21334362.734    21334367.434          48.800
        40.900
 120882667.568 6  94194379.15546  23003199.531    23003207.746          41.900
        41.500
 105354213.241 8  82094241.62447  20048229.734    20048237.949          52.700
        44.700
 118137125.214 7  92054908.08045  22480736.648    22480742.402          44.200
        31.800
 110653967.350 8  86223796.88846  21056722.266    21056728.137          49.000
        40.100
 133916275.395 6 104350365.76844  25483417.047    25483426.434          36.500
        27.600
 22  1  1  0 55  0.0000000  0 11G19G13G03G30G17G21G08G01G07G14G10
 130281812.046 6 101518374.27843  24791819.148    24791823.730          36.600
        20.600
 131309438.941 6 102319078.06942  24987360.477    24987366.055          36.300
        17.400
 131271107.744 5                  24980057.516                          34.600

 114448474.618 7  89180667.38546  21778813.977    21778822.367          47.400
        38.100
 118127287.315 7  92047360.27045  22478895.570    22478901.090          45.500
        34.200
 112164882.040 8  87401255.97846  21344255.406    21344260.457          49.600
        40.800
 120968727.104 6  94261438.52946  23019575.953    23019583.992          41.900
        41.500
 105329098.048 8  82074671.34947  20043450.758    20043459.090          52.300
        44.600
 118231135.019 7  92128162.43545  22498626.867    22498632.621          43.700
        32.800
 110595141.220 7  86177958.34546  21045527.844    21045533.363          47.900
        40.300
 133967604.602 5 104390362.55543  25493184.969    25493193.477          32.500
        23.000
 22  1  1  0 55 30.0000000  0 10G19G13G03G30G17G21G08G01G07G14
 130183224.463 5 101441552.85343  24773058.352    24773062.816          35.700
        21.100
 131365574.767 6 102362820.20443  24998044.125    24998048.824          36.600
        19.600
 131167743.315 5 102208662.40052  24960387.133    24960399.156          34.600
        15.600
 114504463.449 7  89224295.02246  21789468.305    21789476.402          47.800
        37.900
 118059377.207 7  91994443.33345  22465973.391    22465978.266          46.300
        34.300
 112217285.408 8  87442089.76846  21354227.516    21354232.098          50.000
        41.200
 121054885.044 6  94328574.56546  23035971.172    23035980.383          41.100
        41.400
 105304632.659 8  82055607.42147  20038794.688    20038803.313          51.900
        44.600
 118325436.119 7  92201643.76645  22516571.789    22516577.953          42.600
        31.500
 110536654.676 8  86132384.42246  21034398.398    21034403.918          48.500
        40.100
 22  1  1  0 56  0.0000000  0 10G19G13G03G30G17G21G08G01G07G14
 130084710.375 5 101364788.67543  24754311.664    24754315.660          35.700
        20.600
 131422094.186 6 102406861.27342  25008798.555    25008803.371          36.500
        17.400
 131064355.603 6 102128100.58642  24940713.781    24940725.863          36.400
        17.400
 114560954.776 8  89268314.22046  21800218.430    21800226.293          48.000
        39.100
 117991666.274 7  91941681.57245  22453087.641    22453093.102          45.600
        34.000
 112270103.752 8  87483246.92346  21364277.836    21364282.418          49.400
        41.200
 121141140.349 7  94395786.46646  23052385.125    23052393.457          42.000
        40.800
 105280817.457 8  82037050.13147  20034263.305    20034271.637          52.300
        44.900
 118420025.492 7  92275349.73645  22534571.023    22534577.598          42.400
        30.900
 110478509.587 8  86087076.56846  21023333.688    21023339.148          48.600
        41.100
 22  1  1  0 56 30.0000000  0 11G19G13G03G30G17G21G08G01G07G14G10
 129986270.464 5 101288082.26843  24735579.734    24735582.852          35.300
        20.100
 131478994.423 6 102451199.12643  25019625.781    25019631.359          36.800
        19.300
 130960947.614 5 102047522.96142  24921038.180    24921046.395          35.900
        16.900
 114617946.615 7  89312723.42346  21811063.516    21811071.613          47.900
        38.100
 117924154.930 7  91889075.35545  22440240.875    22440246.043          46.200
        34.100
 112323335.437 8  87524726.15946  21374408.164    21374412.629          49.500
        41.400
 121227491.844 6  94463073.33846  23068817.086    23068825.887          41.100
        40.500
 105257652.946 8  82018999.87147  20029854.914    20029863.656          51.800
        44.900
 118514900.304 7  92349278.14645  22552625.531    22552630.934          42.700
        30.900
 110420707.961 8  86042036.34346  21012334.211    21012339.906          48.600
        40.300
 134124353.04015 104512494.12152  25523011.297    25523018.574          33.000
        14.800
 22  1  1  0 57  0.0000000  0 11G19G13G03G30G17G21G08G01G07G14G10
 129887905.339 6 101211434.12243  24716861.906    24716865.141          37.000
        21.100
 131536272.415 5 102495831.28642  25030525.023    25030530.777          35.200
        16.300
 130857521.511 6 101966931.18542  24901354.680    24901364.887          36.100
        17.400
 114675436.034 7  89357520.34646  21822003.539    21822010.992          46.200
        37.900
 117856842.597 7  91836624.19845  22427431.477    22427437.113          45.800
        34.800
 112376977.202 8  87566524.94046  21384615.414    21384620.289          48.900
        40.900
 121313938.357 6  94530434.24646  23085266.813    23085276.258          41.100
        40.500
 105235138.615 8  82001456.24747  20025570.758    20025579.383          52.400
        45.200
 118610056.767 7  92423426.02245  22570732.570    22570739.145          43.400
        31.200
 110363250.842 8  85997264.56646  21001400.078    21001405.773          48.900
        39.900
 134177504.60515 104553911.06153  25533124.445    25533131.195          35.700
        19.300
 22  1  1  0 57 30.0000000  0 11G19G13G03G30G17G21G08G01G07G14G10
 129789615.742 6 101134844.87043  24698156.969    24698162.020          37.000
        20.900
 131593925.785 5 102540755.97442  25041497.313    25041502.246          35.900
        15.600
 130754080.981 6 101886328.24543  24881671.922    24881679.727          36.500
        18.300
 114733421.540 7  89402703.84146  21833037.641    21833045.270          47.000
        37.900
 117789730.392 7  91784329.00245  22414661.000    22414666.051          46.100
        35.000
 112431027.361 8  87608641.94746  21394901.094    21394905.441          49.800
        40.800
 121400479.332 6  94597868.74646  23101735.344    23101744.555          41.000
        40.700
 105213275.439 8  81984420.01547  20021410.539    20021418.344          51.900
        44.700
 118705492.733 7  92497791.67445  22588893.508    22588899.555          42.400
        30.200
 110306140.778 8  85952763.22446  20990532.820    20990538.809          48.700
        40.900
 134231107.538 6 104595679.62143  25543325.484    25543331.883          37.900
        22.000
 22  1  1  0 58  0.0000000  0 11G19G13G03G30G17G21G08G01G07G14G10
 129691402.248 6 101058314.88943  24679468.070    24679472.242          37.100
        21.300
 131651952.291 6 102585971.51142  25052538.930    25052543.980          36.900
        16.300
 130650629.163 6 101805716.50843  24861983.203    24861993.820          36.100
        19.900
 114791901.124 7  89448272.32046  21844166.047    21844173.852          47.700
        38.200
 117722818.887 7  91732190.18245  22401928.453    22401933.621          44.600
        35.000
 112485484.330 8  87651075.94846  21405263.836    21405268.535          48.500
        40.700
 121487113.983 6  94665376.25246  23118222.063    23118230.512          40.900
        40.900
 105192063.851 8  81967891.51047  20017373.844    20017382.703          52.300
        45.000
 118801205.508 7  92572373.05345  22607107.195    22607113.008          42.700
        30.400
 110249379.850 8  85908533.93146  20979731.406    20979736.984          49.400
        40.200
 134285160.271 6 104637798.66144  25553611.320    25553618.422          38.800
        26.400
 22  1  1  0 58 30.0000000  0 11G19G13G03G30G17G21G08G01G07G14G10
 129593265.888 6 100981845.00343  24660793.914    24660797.383          36.700
        21.100
 131710348.826 5                  25063651.555                          32.900

 130547168.664 6 101725098.04943  24842296.586    24842306.559          37.600
        19.300
 114850872.233 7  89494223.82646  21855387.828    21855395.750          46.800
        37.700
 117656107.147 7  91680207.02445  22389233.648    22389238.523          45.700
        35.000
 112540345.637 8  87693825.02546  21415703.992    21415708.457          48.000
        40.800
 121573841.140 6  94732955.83546  23134725.430    23134733.410          40.700
        41.100
 105171503.759 8  81951870.66947  20013461.305    20013470.340          52.500
        44.900
 118897191.747 7  92647167.47945  22625372.969    22625379.191          43.200
        30.900
 110192969.544 8  85864577.85746  20968997.453    20969003.207          48.800
        40.500
 134339660.787 6 104680266.59645  25563982.859    25563989.375          38.700
        30.200
 22  1  1  0 59  0.0000000  0 11G19G13G03G30G17G21G08G01G07G14G10
 129495207.093 5 100905435.55943  24642132.586    24642137.871          35.300
        21.300
 131769113.05915                  25074831.867                          31.600

 130443702.731 6 101644475.25943  24822607.578    24822617.785          37.100
        20.100
 114910332.956 7  89540556.82946  21866703.109    21866710.680          47.900
        38.300
 117589596.231 7  91628380.36045  22376576.859    22376581.793          46.100
        35.400
 112595609.208 8  87736887.54646  21426219.906    21426224.605          48.400
        40.500
 121660660.130 6  94800606.99246  23151246.695    23151255.203          40.400
        40.600
 105151595.671 8  81936357.88247  20009672.883    20009681.332          52.300
        45.100
 118993448.663 7  92722172.80445  22643689.719    22643696.059          42.600
        31.100
 110136912.051 7  85820896.69546  20958329.484    20958335.004          47.700
        40.400
 134394607.575 6 104723082.27845  25574438.758    25574445.859          38.600
        31.100
 22  1  1  0 59 30.0000000  0 11G19G13G03G30G17G21G08G01G07G14G10
 129397226.925 6 100829087.45343  24623488.992    24623492.168          36.900
        21.800
 131828242.43915                  25086086.133                          32.000

 130340234.396 6 101563850.62543  24802918.617    24802928.004          37.200
        20.100
 114970281.169 8  89587269.70246  21878111.039    21878118.141          48.300
        37.900
 117523285.981 7  91576710.06445  22363958.039    22363963.324          45.700
        35.400
 112651272.975 8  87780261.90746  21436812.477    21436816.766          49.300
        40.800
 121747569.863 6  94868328.83546  23167784.984    23167793.141          40.800
        40.400
 105132339.880 8  81921353.37547  20006008.477    20006016.984          52.100
        44.900
 119089973.570 7  92797387.01345  22662058.125    22662064.055          43.500
        31.300
 110081209.315 8  85777491.96546  20947729.820    20947735.574          48.800
        40.900
 134449998.980 6 104766244.40545  25584978.320    25584986.125          37.100
        30.400
 22  1  1  1  0  0.0000000  0 11G19G13G03G30G17G21G08G01G07G14G10
 129299326.046 6 100752801.06543  24604858.070    24604861.773          36.600
        19.600
 131887733.55515                  25097405.125                          32.400

 130236766.585 6 101483226.46443  24783228.055    24783238.672          37.100
        21.300
 115030714.316 8  89634360.45046  21889610.375    21889619.117          48.100
        37.400
 117457176.816 7  91525196.45245  22351377.844    22351383.188          45.500
        35.000
 112707334.420 8  87823946.15146  21447480.414    21447485.055          49.100
        40.600
 121834569.346 6  94936120.63546  23184340.188    23184348.285          41.300
        40.500
 105113736.207 8  81906857.01747  20002468.391    20002477.016          52.200
        45.200
 119186762.884 7  92872807.23045  22680476.953    22680482.473          43.400
        30.000
 110025862.920 8  85734364.91146  20937197.906    20937203.895          49.100
        40.700
 134505832.754 5 104809751.22744  25595602.492    25595611.059          35.200
        29.600
 22  1  1  1  0 30.0000000  0 11G19G13G03G30G17G21G08G01G07G14G10
 129201504.724 6 100676576.66743  24586244.633    24586247.105          38.600
        21.500
 131947584.368 5                  25108795.219                          35.200

 130133302.418 6 101402605.10943  24763539.820    24763550.320          38.100
        21.500
 115091630.460 7  89681827.54546  21901202.563    21901211.246          47.500
        37.900
 117391269.019 7  91473839.74745  22338835.977    22338841.555          45.700
        35.900
 112763791.480 8  87867938.67846  21458224.273    21458228.855          49.500
        40.900
 121921657.699 6  95003981.66546  23200913.242    23200921.457          41.700
        39.700
 105095785.110 8  81892869.15247  19999052.703    19999061.094          53.100
        44.900
 119283814.006 7  92948431.47345  22698944.813    22698951.152          43.500
        30.800
 109970875.002 8  85691517.19046  20926733.727    20926739.539          48.500
        40.700
 134562107.598 5 104853601.73744  25606313.234    25606319.984          34.200
        29.600
 22  1  1  1  1  0.0000000  0 11G19G13G03G30G17G21G08G01G07G14G10
 129103763.786 6 100600414.89743  24567643.289    24567648.164          37.100
        19.000
 132007791.686 6 102863244.75052  25120253.602    25120256.016          36.400
        16.300
 130029844.615 6 101321988.76743  24743853.609    24743862.000          37.300
        21.700
 115153027.122 7  89729669.07746  21912885.258    21912894.176          47.200
        37.100
 117325562.560 7  91422639.93845  22326332.273    22326337.324          46.200
        35.500
 112820642.015 8  87912237.79246  21469042.258    21469047.309          49.500
        40.100
 122008834.371 6  95071911.52146  23217502.164    23217510.848          41.500
        40.900
 105078486.409 8  81879389.65547  19995760.797    19995769.246          52.900
        45.500
 119381123.989 7  93024257.38645  22717461.844    22717469.180          43.300
        30.200
 109916247.188 8  85648950.05946  20916338.453    20916344.324          48.800
        40.600
 134618821.291 5 104897794.17444  25617104.531    25617112.629          30.300
        26.000
 22  1  1  1  1 30.0000000  0 11G19G13G03G30G17G21G08G01G07G14G10
 129006104.089 6 100524316.45343  24549060.250    24549063.895          37.900
        20.400
 132068353.309 6 102910435.61843  25131777.641    25131782.281          36.100
        18.600
 129926396.612 6 101241379.97643  24724167.367    24724176.813          36.100
        21.800
 115214902.153 7  89777883.37846  21924660.586    21924668.684          47.100
        38.100
 117260057.772 7  91371597.27246  22313867.563    22313872.613          45.500
        36.100
 112877883.833 8  87956841.80846  21479935.414    21479939.586          49.300
        40.600
 122096098.086 6  95139909.19846  23234107.750    23234116.082          41.500
        40.200
 105061840.508 8  81866418.83747  19992592.969    19992601.301          52.100
        45.100
 119478689.868 7  93100282.69545  22736028.383    22736035.309          42.600
        30.400
 109861981.585 8  85606665.18046  20906012.594    20906017.879          48.400
        40.500
 134675972.29214 104942327.31253  25627980.117    25627987.980          27.600
        22.000
 22  1  1  1  2  0.0000000  0 11G19G13G03G30G17G21G08G01G07G14G10
 128908525.953 6 100448281.58443  24530490.391    24530494.973          36.800
        20.400
 132129265.831 6 102957899.85343  25143368.813    25143374.742          36.300
        19.300
 129822961.012 5 101160780.82543  24704484.844    24704493.938          35.500
        20.400
 115277253.089 7  89826468.50346  21936525.117    21936533.566          46.800
        37.300
 117194755.212 7  91320712.18245  22301441.227    22301446.102          46.600
        35.500
 112935514.523 8  88001748.83746  21490901.586    21490906.227          49.400
        40.900
 122183447.906 6  95207973.99046  23250729.750    23250738.199          41.600
        40.000
 105045847.129 8  81853956.47147  19989549.469    19989558.094          51.900
        45.300
 119576508.365 7  93176504.85544  22754642.547    22754649.297          42.500
        29.900
 109808079.813 8  85564663.80446  20895755.250    20895760.770          49.200
        40.500
 134733558.46015 104987199.57054  25638938.313    25638946.586          31.200
        24.100
 22  1  1  1  2 30.0000000  0 11G19G13G03G30G17G21G08G01G07G14G10
 128811030.543 6 100372311.18043  24511939.195    24511942.605          37.300
        21.800
 132190526.657 6 103005635.59643  25155026.992    25155032.043          38.800
        18.600
 129719541.136 5 101080194.01143  24684803.742    24684813.070          34.300
        18.600
 115340077.659 8  89875422.71146  21948480.336    21948488.375          48.000
        37.900
 117129654.289 7  91269984.22745  22289051.938    22289057.867          46.000
        35.500
 112993532.500 8  88046957.65446  21501942.406    21501947.047          49.900
        40.700
 122270883.268 6  95276105.42546  23267369.219    23267376.789          41.400
        40.200
 105030506.472 8  81842002.71847  19986630.336    19986639.137          52.700
        44.900
 119674576.649 7  93252921.69745  22773304.578    22773310.332          44.100
        30.200
 109754543.863 8  85522947.47946  20885567.930    20885573.391          48.300
        41.100
 134791577.888 5 105032409.53044  25649977.430    25649986.934          35.000
        25.600
 22  1  1  1  3  0.0000000  0 11G19G13G03G30G17G21G08G01G07G14G10
 128713618.559 6 100296405.76343  24493402.094    24493405.621          38.800
        22.500
 132252133.409 6 103053640.79743  25166749.617    25166755.020          38.700
        18.300
 129616140.007 5 100999621.80643  24665126.570    24665137.070          35.100
        18.600
 115403373.759 7  89924744.30546  21960525.352    21960534.035          47.100
        37.500
 117064755.711 7  91219413.91845  22276702.414    22276707.289          46.800
        35.400
 113051935.410 8  88092466.41846  21513056.156    21513060.973          49.500
        40.400
 122358402.756 6  95344302.40246  23284023.438    23284031.770          41.300
        40.300
 105015818.663 8  81830557.68147  19983835.383    19983843.949          52.800
        45.100
 119772892.146 7  93329531.14945  22792012.836    22792019.586          43.000
        30.400
 109701375.749 8  85481517.77646  20875449.641    20875455.512          48.700
        40.900
 134850029.014 6 105077955.87344  25661103.078    25661109.652          38.200
        25.700
 22  1  1  1  3 30.0000000  0 11G19G13G03G30G17G21G08G01G07G14G10
 128616290.098 6 100220565.45543  24474880.742    24474884.914          38.200
        20.400
 132314083.164 6 103101913.31643  25178539.102    25178543.391          36.700
        18.300
 129512760.552 6 100919066.46343  24645454.539    24645463.867          36.800
        18.600
 115467138.809 7  89974431.34646  21972659.438    21972666.773          47.000
        36.900
 117000059.727 7  91169001.49145  22264391.430    22264396.656          47.000
        35.300
 113110720.741 8  88138273.17546  21524242.469    21524247.109          49.900
        40.200
 122446005.925 7  95412564.59446  23300693.211    23300701.367          42.000
        40.100
 105001783.501 8  81819621.20347  19981164.016    19981172.465          52.900
        44.700
 119871451.744 7  93406330.76944  22810768.328    22810774.844          43.200
        29.100
 109648577.145 8  85440376.00746  20865402.438    20865408.484          48.900
        41.100
 134908909.695 6 105123836.94144  25672307.156    25672314.199          39.800
        25.600
 22  1  1  1  4  0.0000000  0 11G19G13G03G30G17G21G08G01G07G14G10
 128519046.094 6 100144790.92843  24456375.281    24456379.863          37.700
        21.300
 132376372.524 6 103150450.44542  25190391.891    25190396.824          37.700
        17.400
 129409405.776 6 100838530.36843  24625786.945    24625795.863          37.500
        20.100
 115531370.259 7  90024481.80446  21984882.117    21984891.387          46.800
        37.300
 116935566.405 7  91118746.98046  22252118.820    22252123.871          46.300
        36.400
 113169886.160 8  88184376.09746  21535501.391    21535505.738          49.900
        40.000
 122533691.772 7  95480891.20746  23317379.547    23317387.996          42.300
        40.600
 104988400.777 8  81809193.11647  19978618.273    19978626.371          52.800
        45.600
 119970251.871 7  93483317.86544  22829569.672    22829576.129          43.400
        29.100
 109596149.753 8  85399523.49646  20855425.906    20855431.660          49.200
        41.200
 134968217.931 6 105170051.23043  25683593.633    25683600.031          40.800
        23.300
 22  1  1  1  4 30.0000000  0 11G19G13G03G30G17G21G08G01G07G14G10
 128421887.638 6 100069083.08043  24437888.313    24437890.551          38.900
        20.900
 132438999.446 5 103199250.63742  25202309.516    25202315.504          35.300
        16.300
 129306079.084 6 100758016.08743  24606124.836    24606133.988          36.900
        21.100
 115596066.288 7  90074894.25546  21997194.055    21997202.035          47.300
        36.900
 116871275.886 7  91068650.50045  22239884.438    22239889.254          46.500
        35.800
 113229430.103 8  88230773.97646  21546832.141    21546836.664          49.400
        40.200
 122621459.420 6  95549281.55846  23334080.383    23334089.945          40.700
        39.900
 104975670.837 8  81799273.68847  19976195.281    19976204.375          51.900
        45.000
 120069290.083 7  93560490.48644  22848416.336    22848422.090          43.700
        29.000
 109544095.831 8  85358961.99546  20845520.617    20845526.137          48.800
        41.300
 135027952.293 6 105216597.56844  25694959.977    25694967.781          40.400
        27.400
 22  1  1  1  5  0.0000000  0 11G19G13G03G30G17G21G08G01G07G14G10
 128324815.232 6  99993442.27443  24419415.789    24419418.203          38.600
        22.600
 132501960.946 5                  25214292.172                          34.800

 129202783.332 6 100677525.97843  24586467.633    24586477.957          36.900
        21.300
 115661224.200 7  90125666.64546  22009592.625    22009600.313          47.200
        36.200
 116807188.344 7  91018712.16846  22227689.047    22227693.980          46.400
        36.100
 113289349.958 8  88277464.77846  21558234.719    21558239.066          49.500
        40.000
 122709308.283 6  95617735.19846  23350797.859    23350806.953          40.500
        40.400
 104963593.398 8  81789862.70347  19973897.148    19973905.539          51.800
        45.500
 120168563.273 7  93637846.19744  22867306.320    22867313.129          42.300
        28.100
 109492417.090 8  85318692.84946  20835686.789    20835692.074          49.400
        41.600
 135088110.550 6 105263474.17445  25706407.711    25706415.809          40.500
        30.200
 22  1  1  1  5 30.0000000  0 11G19G13G03G30G17G21G08G01G07G14G10
 128227829.322 6  99917868.90543  24400959.070    24400963.125          37.900
        22.000
 132565254.29214                  25226333.836                          29.400

 129099521.718 5 100597062.46243  24566817.023    24566827.523          35.000
        21.700
 115726841.613 7  90176797.08246  22022079.484    22022088.168          46.600
        37.200
 116743304.251 7  90968932.38446  22215532.648    22215537.816          46.700
        36.200
 113349643.364 8  88324446.65546  21569707.859    21569712.559          49.800
        40.100
 122797237.285 6  95686251.27346  23367530.133    23367538.875          39.600
        40.000
 104952168.309 8  81780960.04847  19971722.891    19971731.398          52.200
        45.600
 120268068.394 7  93715382.61444  22886241.805    22886248.613          42.900
        28.700
 109441115.365 8  85278717.47246  20825923.813    20825929.684          48.700
        41.100
 135148690.765 6 105310679.55145  25717936.000    25717943.570          40.100
        32.500
 22  1  1  1  6  0.0000000  0 11G19G13G03G30G17G21G08G01G07G14G10
 128130930.912 6  99842363.68243  24382519.734    24382523.320          37.800
        20.900
 132628877.48214                  25238443.195                          27.300

 128996297.600 6 100516628.18643  24547175.477    24547184.570          36.600
        22.600
 115792916.489 7  90228283.97245  22034652.320    22034660.711          46.000
        35.800
 116679623.640 7  90919311.14446  22203414.133    22203418.891          47.200
        36.300
 113410308.608 8  88371718.27346  21581251.945    21581256.234          49.700
        40.500
 122885245.550 6  95754829.11646  23384277.430    23384286.289          40.000
        39.900
 104941395.743 8  81772565.84447  19969672.914    19969681.598          52.400
        45.300
 120367802.853 7  93793097.75444  22905221.727    22905227.070          42.800
        28.500
 109390192.832 8  85239037.57946  20816233.430    20816239.359          49.000
        40.900
 135209691.318 6 105358212.44745  25729543.008    25729550.813          36.800
        30.500
 22  1  1  1  6 30.0000000  0 11G19G13G03G30G17G21G08G01G07G14G10
 128034120.306 6  99766926.90443  24364096.984    24364101.566          37.700
        22.900
 132692825.33314                  25250609.383                          28.000

 128893113.427 5 100436225.00743  24527538.539    24527548.746          34.900
        19.600
 115859445.811 7  90280124.98846  22047313.578    22047321.148          46.500
        37.000
 116616146.705 7  90869848.62245  22191335.305    22191340.766          47.000
        35.900
 113471342.948 8  88419277.49846  21592866.250    21592871.184          49.300
        40.100
 122973332.421 6  95823468.21546  23401040.086    23401049.063          40.500
        39.500
 104931275.027 8  81764679.58147  19967747.164    19967755.672          52.100
        45.400
 120467763.182 6  93870988.87044  22924241.938    22924249.156          41.700
        27.900
 109339650.832 8  85199654.20346  20806616.000    20806621.930          48.900
        41.600
 135271109.744 5 105406070.96044  25741230.664    25741238.996          34.600
        29.600
 22  1  1  1  7  0.0000000  0 11G19G13G03G30G17G21G08G01G07G14G10
 127937398.444 6  99691559.28143  24345690.648    24345695.230          37.600
        22.200
 132757097.118 5                  25262839.844                          33.300

 128789972.867 5 100355855.84443  24507913.258    24507922.293          34.200
        18.600
 115926427.528 7  90332318.49746  22060059.195    22060068.055          46.200
        36.400
 116552874.084 7  90820545.30346  22179294.609    22179299.250          47.800
        36.800
 113532744.670 8  88467122.99846  21604551.297    21604555.762          49.800
        40.000
 123061496.874 7  95892167.76846  23417818.016    23417826.055          42.200
        40.100
 104921806.298 8  81757301.36447  19965945.383    19965953.715          52.900
        45.200
 120567946.341 7  93949053.63644  22943307.375    22943313.773          42.700
        28.600
 109289491.600 8  85160569.09246  20797071.055    20797076.750          49.500
        41.400
 135332944.505 4 105454253.86443  25752997.195    25753005.000          29.400
        23.500
 22  1  1  1  7 30.0000000  0 10G19G13G03G30G17G21G08G01G07G14
 127840766.153 6  99616261.41943  24327302.445    24327306.734          36.100
        22.200
 132821689.527 6                  25275133.266                          36.300

 128686878.853 5 100275522.97543  24488294.883    24488304.211          34.800
        19.300
 115993859.260 7  90384862.69446  22072890.930    22072899.086          46.700
        36.000
 116489805.649 7  90771401.07746  22167292.750    22167297.977          47.000
        36.600
 113594511.399 8  88515252.92546  21616305.102    21616309.508          49.200
        39.500
 123149738.411 6  95960927.38646  23434608.703    23434617.680          40.900
        38.600
 104912989.337 8  81750431.00747  19964267.469    19964276.094          52.500
        45.500
 120668350.038 7  94027290.24345  22962413.391    22962420.199          42.200
        30.000
 109239716.948 8  85121783.64546  20787598.813    20787604.742          49.200
        41.300
 22  1  1  1  8  0.0000000  0 10G19G13G03G30G17G21G08G01G07G14
 127744223.937 6  99541033.77743  24308931.938    24308935.172          37.200
        22.200
 132886599.461 6 103548041.77352  25287484.633    25287489.977          37.100
        14.800
 128583834.466 6 100195228.74243  24468684.680    24468694.711          36.000
        20.100
 116061738.253 7  90437755.40346  22085807.766    22085816.332          45.600
        36.100
 116426941.453 7  90722416.00846  22155330.297    22155335.172          47.500
        36.500
 113656641.163 8  88563665.72946  21628127.734    21628132.844          49.800
        39.900
 123238055.949 6  96029746.23746  23451415.258    23451424.293          40.400
        38.500
 104904823.673 8  81744068.16147  19962713.578    19962722.086          52.500
        45.500
 120768970.637 6  94105695.84344  22981560.398    22981567.793          41.400
        28.900
 109190328.558 8  85083299.18146  20778200.898    20778206.770          49.700
        41.500
 22  1  1  1  8 30.0000000  0 11G19G13G03G30G17G21G08G01G07G14G10
 127647772.348 6  99465876.76243  24290578.734    24290581.617          37.400
        23.300
 132951824.024 6 103598866.07643  25299896.344    25299901.570          36.000
        18.300
 128480842.620 6 100114975.38743  24449086.852    24449095.477          37.600
        18.300
 116130061.987 7  90490994.65146  22098809.617    22098818.184          46.300
        36.100
 116364281.419 7  90673590.02246  22143406.430    22143411.598          47.400
        36.700
 113719131.067 8  88612359.15546  21640018.617    21640023.375          48.600
        39.900
 123326448.384 6  96098623.43946  23468234.688    23468244.309          40.800
        38.000
 104897308.954 8  81738212.54147  19961283.641    19961291.914          52.100
        45.300
 120869805.207 7  94184268.19644  23000748.523    23000755.801          42.800
        28.300
 109141328.184 8  85045117.07646  20768876.688    20768882.383          49.700
        41.700
 135520921.27715                  25788768.984                          31.500

 22  1  1  1  9  0.0000000  0 11G19G13G03G30G17G21G08G01G07G14G10
 127551411.988 6  99390790.77543  24272240.930    24272244.281          39.000
        22.000
 133017359.974 6 103649933.06342  25312367.219    25312373.266          38.800
        17.800
 128377906.383 6 100034765.36643  24429498.289    24429507.266          37.800
        19.000
 116198827.692 7  90544578.30245  22111895.195    22111903.762          46.300
        35.900
 116301825.759 7  90624923.28546  22131521.688    22131526.563          47.000
        36.700
 113781978.571 8  88661331.23846  21651978.273    21651982.914          49.300
        39.700
 123414914.476 6  96167558.04746  23485070.367    23485078.934          41.800
        38.900
 104890444.595 8  81732863.69747  19959977.523    19959986.324          52.500
        45.300
 120970850.371 6  94263004.64044  23019977.922    23019983.793          41.100
        28.800
 109092717.376 8  85007238.52547  20759625.727    20759631.715          50.000
        42.100
 135584400.28115 105650189.85354  25800848.773    25800857.984          34.600
        29.900
 22  1  1  1  9 30.0000000  0 11G19G13G03G30G17G21G08G01G07G14G10
 127455143.854 6  99315776.66343  24253922.047    24253925.398          38.700
        22.500
 133083205.296 6 103701241.05342  25324898.055    25324902.930          38.200
        17.400
 128275029.232 6  99954601.36243  24409921.609    24409930.293          38.700
        18.600
 116268033.536 7  90598504.91246  22125064.484    22125072.934          46.300
        36.000
 116239574.985 7  90576416.20946  22119675.633    22119681.387          46.300
        36.900
 113845182.082 8  88710580.72746  21664005.523    21664010.691          49.300
        39.300
 123503454.291 6  96236550.11746  23501918.938    23501927.797          41.100
        38.400
 104884230.891 8  81728021.85347  19958795.055    19958803.797          52.400
        45.700
 121072103.845 7  94341903.38844  23039246.383    23039251.668          43.200
        28.900
 109044498.667 8  84969665.50547  20750449.984    20750455.797          49.600
        42.000
 135648285.634 6 105699970.60445  25813006.719    25813013.527          37.900
        30.100
 22  1  1  1 10  0.0000000  0 11G19G13G03G30G17G21G08G01G07G14G10
 127358968.136 6  99240834.60043  24235619.391    24235623.563          37.400
        21.800
 133149356.478 6 103752787.42442  25337486.383    25337490.613          37.200
        17.800
 128172213.702 6  99874485.32443  24390356.297    24390365.742          38.800
        19.300
 116337676.300 7  90652771.98246  22138318.063    22138325.457          46.800
        36.200
 116177528.965 7  90528068.67546  22107868.680    22107873.555          47.200
        37.400
 113908738.879 8  88760105.50946  21676099.875    21676104.574          49.300
        38.800
 123592066.879 6  96305598.89846  23518781.586    23518789.566          40.600
        38.600
 104878666.876 8  81723686.27147  19957736.172    19957745.207          52.400
        45.000
 121173561.981 7  94420961.63944  23058553.047    23058558.742          43.200
        29.100
 108996673.200 8  84932398.90746  20741349.523    20741355.395          49.700
        41.700
 135712574.791 6 105750066.02244  25825240.141    25825247.828          38.900
        28.800
 22  1  1  1 10 30.0000000  0 11G19G13G03G30G17G21G08G01G07G14G10
 127262885.947 6  99165965.38343  24217335.148    24217339.848          36.300
        21.500
 133215810.625 5 103804569.83642  25350133.406    25350136.875          32.500
        17.800
 128069463.316 6  99794420.08043  24370804.031    24370812.832          39.400
        19.900
 116407753.664 7  90707377.69846  22151652.836    22151661.285          45.800
        36.100
 116115688.403 7  90479881.23846  22096100.531    22096105.699          46.600
        37.300
 113972647.315 8  88809904.29146  21688261.648    21688266.523          49.500
        39.100
 123680751.139 6  96374703.48546  23535658.609    23535665.945          40.800
        38.900
 104873752.287 8  81719856.72347  19956801.078    19956809.176          52.300
        45.700
 121275221.821 7  94500177.08144  23077898.180    23077903.934          43.200
        28.100
 108949242.990 8  84895440.29246  20732324.320    20732329.898          49.300
        41.500
 135777265.812 6 105800474.56544  25837550.711    25837558.047          36.400
        24.700
 22  1  1  1 11  0.0000000  0 11G19G13G03G30G17G21G08G01G07G14G10
 127166898.074 6  99091169.65043  24199070.750    24199073.516          38.400
        21.500
 133282565.513 4 103856586.65442  25362834.594    25362841.871          28.600
        14.800
 127966781.758 6  99714408.50343  24351263.914    24351273.242          38.600
        20.400
 116478263.597 7  90762320.47646  22165070.352    22165078.742          45.800
        36.000
 116054053.588 7  90431854.11546  22084371.625    22084376.617          45.900
        36.500
 114036905.316 8  88859975.46346  21700489.609    21700494.191          49.400
        39.400
 123769506.769 6  96443863.71646  23552547.008    23552555.809          39.200
        37.900
 104869487.230 8  81716533.31147  19955989.398    19955998.082          52.300
        45.100
 121377080.876 6  94579547.73044  23097280.797    23097287.137          41.900
        27.800
 108902210.349 8  84858791.48546  20723373.602    20723379.414          49.800
        41.700
 135842357.132 5 105851194.95143  25849938.539    25849945.348          34.700
        19.900
 22  1  1  1 11 30.0000000  0 10G19G03G30G17G21G08G01G07G14G10
 127071004.976 6  99016447.76343  24180823.383    24180826.734          39.200
        21.800
 127864171.694 6  99634452.67643  24331736.883    24331747.148          36.600
        20.600
 116549203.122 7  90817597.99645  22178569.656    22178578.867          45.800
        35.900
 115992624.195 7  90383987.07346  22072682.305    22072687.766          45.600
        36.400
 114101509.916 8  88910316.70746  21712783.055    21712787.695          49.600
        39.500
 123858332.704 6  96513078.73646  23569449.711    23569458.688          40.000
        37.800
 104865870.875 8  81713715.37147  19955301.445    19955309.719          50.900
        45.500
 121479136.139 7  94659071.29144  23116701.523    23116707.277          42.200
        27.800
 108855576.766 8  84822453.63046  20714499.422    20714505.176          49.800
        41.100
 135907846.40415 105902225.32552  25862399.484    25862408.402          32.500
        15.600
 22  1  1  1 12  0.0000000  0 10G19G03G30G17G21G08G01G07G14G10
 126975207.627 6  98941800.50143  24162593.031    24162596.441          39.500
        22.800
 127761636.492 6  99554555.25943  24312226.703    24312235.855          37.100
        21.700
 116620569.948 7  90873208.48245  22192150.219    22192158.902          46.100
        35.900
 115931400.227 7  90336280.09346  22061031.633    22061037.211          45.600
        36.800
 114166459.808 8  88960927.01346  21725142.391    21725147.559          48.800
        39.100
 123947228.595 6  96582348.28446  23586366.328    23586374.367          40.600
        38.100
 104862903.000 8  81711402.75147  19954736.359    19954745.102          51.700
        45.500
 121581384.543 6  94738745.33644  23136158.672    23136165.246          41.300
        28.000
 108809344.273 8  84786428.30547  20705702.273    20705707.910          49.200
        42.300
 135973731.75115 105953560.18452  25874937.953    25874941.891          32.300
        15.600
 22  1  1  1 12 30.0000000  0 10G19G13G03G30G17G21G08G01G07G14
 126879506.210 6  98867227.94943  24144380.813    24144384.984          38.600
        22.500
 133484652.87215                  25401281.719                          31.800

 127659179.247 6  99474718.54243  24292729.602    24292739.223          36.900
        22.900
 116692361.273 7  90929149.75845  22205812.180    22205819.809          46.600
        35.500
 115870382.233 7  90288733.62746  22049420.602    22049425.887          47.000
        37.200
 114231751.834 8  89011803.91146  21737567.500    21737572.141          49.700
        39.200
 124036193.031 6  96651671.23046  23603294.938    23603304.207          40.000
        37.400
 104860582.941 8  81709594.91847  19954295.047    19954303.438          51.100
        45.600
 121683822.804 6  94818567.31944  23155652.414    23155658.168          41.500
        27.400
 108763514.513 8  84750716.80147  20696980.859    20696986.145          50.100
        42.100
 22  1  1  1 13  0.0000000  0 10G19G13G03G30G17G21G08G01G07G14
 126783901.679 6  98792730.92143  24126188.992    24126191.641          39.900
        22.300
 133552580.43115 104066951.20652  25414206.438    25414213.246          34.800
        14.800
 127556802.897 6  99394944.84943  24273247.289    24273256.793          36.900
        22.800
 116764574.481 7  90985419.74146  22219553.320    22219562.121          45.900
        36.100
 115809570.534 7  90241347.89546  22037848.375    22037853.426          47.300
        37.000
 114297384.379 8  89062946.16246  21750057.391    21750061.563          50.200
        39.000
 124125225.596 6  96721047.23946  23620237.148    23620246.477          40.300
        37.400
 104858910.083 8  81708291.40147  19953976.289    19953985.207          52.400
        45.100
 121786448.064 6  94898535.06644  23175180.391    23175186.203          41.600
        25.500
 108718089.223 8  84715320.47146  20688336.617    20688342.488          49.400
        41.900
 22  1  1  1 13 30.0000000  0 11G19G13G03G30G17G21G08G01G07G14G10
 126688394.712 6  98718309.90243  24108014.523    24108017.055          40.100
        22.300
 133620793.629 6 104120104.39242  25427188.289    25427194.512          37.000
        13.900
 127454510.728 6  99315236.78143  24253782.164    24253791.785          37.300
        22.500
 116837206.820 7  91042016.34945  22233375.086    22233382.891          46.000
        35.700
 115748964.919 8  90194122.75146  22026315.477    22026320.586          48.000
        37.700
 114363354.393 8  89114351.36746  21762610.320    21762615.313          49.900
        39.400
 124214324.996 6  96790475.31846  23637193.609    23637202.527          40.000
        38.300
 104857883.781 8  81707491.68447  19953781.023    19953789.824          52.000
        45.100
 121889257.043 6  94978645.91444  23194744.758    23194750.746          40.200
        26.400
 108673070.077 8  84680240.62047  20679769.891    20679775.762          49.300
        42.300
 136173674.43615                  25912998.195                          31.800

 22  1  1  1 14  0.0000000  0 11G19G13G03G30G17G21G08G01G07G14G10
 126592985.638 6  98643965.19043  24089859.102    24089862.160          38.700
        22.300
 133689289.608 6 104173478.01242  25440222.617    25440228.313          38.900
        13.900
 127352305.321 6  99235596.27943  24234332.625    24234342.305          36.800
        22.600
 116910255.373 7  91098937.27945  22247274.922    22247284.016          45.200
        35.000
 115688565.686 8  90147058.42746  22014821.984    22014827.270          48.100
        36.900
 114429659.357 8  89166017.57546  21775228.375    21775232.840          49.800
        39.300
 124303490.559 6  96859954.96346  23654159.781    23654169.461          39.900
        38.300
 104857503.068 8  81707195.03247  19953708.500    19953717.184          52.400
        45.700
 121992246.398 6  95058897.31444  23214342.531    23214349.223          41.300
        25.800
 108628458.466 8  84645478.32046  20671280.008    20671285.820          49.600
        41.800
 136241122.15215 106161973.73654  25925832.758    25925840.504          35.100
        29.400
 22  1  1  1 14 30.0000000  0 11G19G13G03G30G17G21G08G01G07G14G10
 126497675.556 6  98569697.65444  24071721.773    24071725.359          39.200
        26.200
 133758065.946 6                  25453310.227                          39.700

 127250190.733 6  99156026.58643  24214901.125    24214910.160          38.200
        22.200
 116983718.279 7  91156181.10345  22261255.508    22261263.605          45.900
        35.600
 115628372.982 7  90100155.03446  22003367.398    22003372.566          47.500
        37.100
 114496297.974 8  89217943.77046  21787909.156    21787913.504          48.900
        39.500
 124392722.107 6  96929486.02646  23671140.781    23671149.992          39.000
        38.200
 104857768.158 8  81707401.60147  19953759.180    19953767.805          51.600
        45.800
 122095414.203 6  95139287.79044  23233975.547    23233981.945          41.300
        27.300
 108584257.062 8  84611035.66646  20662869.508    20662874.910          49.300
        41.800
 136308955.578 5 106214830.93544  25938741.188    25938749.402          34.900
        29.900
 22  1  1  1 15  0.0000000  0 11G19G13G03G30G17G21G08G01G07G14G10
 126402465.098 6  98495507.71043  24053603.570    24053607.215          39.300
        22.800
 133827119.258 6                  25466450.117                          38.100

 127148170.031 6  99076530.03743  24195487.727    24195496.293          39.900
        21.800
 117057592.595 7  91213745.50845  22275313.266    22275321.070          46.000
        34.900
 115568387.064 7  90053412.77046  21991952.563    21991958.082          46.600
        37.400
 114563267.952 8  89270128.16846  21800653.023    21800657.371          49.300
        39.500
 124482018.682 6  96999067.75846  23688133.492    23688141.707          39.800
        36.900
 104858678.182 8  81708110.71847  19953932.367    19953941.227          52.100
        45.400
 122198757.104 6  95219814.67944  23253641.094    23253647.316          41.600
        27.200
 108540467.388 8  84576913.84747  20654535.945    20654542.402          49.600
        42.700
 136377172.639 6 106267987.07445  25951722.211    25951729.430          41.100
        35.300
 22  1  1  1 15 30.0000000  0 11G19G13G03G30G17G21G08G01G07G14G10
 126307354.619 6  98421395.69644  24035503.875    24035507.813          39.600
        24.700
 133896446.484 6 104334891.09752  25479643.508    25479647.680          38.600
        15.600
 127046245.798 6  98997108.60443  24176091.000    24176101.383          38.400
        23.500
 117131875.194 7  91271628.02845  22289449.414    22289457.512          46.200
        35.100
 115508607.882 7  90006831.59846  21980576.898    21980582.477          46.300
        37.400
 114630566.794 8  89322568.82646  21813459.367    21813464.477          49.000
        39.200
 124571379.513 6  97068699.55746  23705138.133    23705146.699          39.700
        37.900
 104860232.032 8  81709321.51447  19954228.508    19954236.898          51.400
        45.300
 122302271.132 6  95300474.92544  23273339.352    23273345.340          41.400
        28.200
 108497090.718 8  84543113.84447  20646282.039    20646287.559          48.800
        42.400
 136445769.909 6 106321439.40044  25964775.641    25964783.094          36.900
        28.800
 22  1  1  1 16  0.0000000  0 11G19G13G03G30G17G21G08G01G07G14G10
 126212345.575 6  98347362.72843  24017425.648    24017428.473          39.500
        23.900
 133966045.035 5 104389123.65842  25492886.039    25492893.141          35.800
        16.300
 126944422.108 6  98917765.47643  24156715.016    24156724.051          38.600
        22.300
 117206564.406 7  91329827.39545  22303661.875    22303670.090          45.500
        34.900
 115449036.373 7  89960412.24846  21969241.367    21969246.242          46.400
        37.600
 114698192.786 8  89375264.39746  21826327.992    21826332.574          49.600
        38.700
 124660804.042 6  97138380.99146  23722156.141    23722163.711          40.100
        38.300
 104862429.893 8  81711034.13747  19954646.211    19954655.246          51.800
        45.100
 122405954.598 6  95381267.20244  23293069.539    23293075.352          41.700
        28.100
 108454129.750 8  84509637.76547  20638106.641    20638112.746          49.100
        42.400
 136514747.641 6 106375188.23544  25977900.766    25977909.332          36.100
        26.200
 22  1  1  1 16 30.0000000  0 10G19G13G03G30G17G21G08G01G07G14
 126117438.141 6  98273408.91643  23999364.422    23999368.477          40.400
        23.800
 134035912.074 4 104443565.42942  25506182.203    25506188.367          29.900
        13.900
 126842701.708 6  98838502.90143  24137358.242    24137367.043          37.800
        22.000
 117281656.983 7  91388341.09045  22317951.383    22317959.363          45.800
        35.200
 115389672.473 7  89914154.67546  21957944.688    21957949.504          46.800
        37.700
 114766142.680 8  89428212.36746  21839258.578    21839263.160          49.100
        38.800
 124750291.235 6  97208111.24746  23739184.180    23739193.215          39.100
        37.600
 104865270.577 8  81713247.66347  19955186.930    19955195.379          51.800
        45.300
 122509803.879 7  95462188.69544  23312831.711    23312837.875          42.400
        28.100
 108411585.771 8  84476486.61447  20630011.133    20630016.711          49.400
        42.100
 22  1  1  1 17  0.0000000  0 10G19G13G03G30G17G21G08G01G07G14
 126022633.108 6  98199534.91044  23981323.727    23981327.137          39.600
        25.800
 134106044.74114                  25519529.211                          29.600

 126741087.853 6  98759323.30643  24118020.758    24118030.906          37.700
        21.500
 117357150.254 7  91447166.98545  22332316.789    22332325.824          44.800
        34.000
 115330516.051 7  89868058.77246  21946687.656    21946692.414          47.000
        37.600
 114834414.727 8  89481411.36346  21852250.594    21852255.234          49.800
        39.200
 124839840.322 6  97277889.73646  23756224.938    23756233.211          40.200
        37.200
 104868753.371 8  81715961.53347  19955849.305    19955858.223          52.100
        45.300
 122613816.177 7  95543237.20644  23332623.516    23332630.617          42.000
        27.800
 108369460.550 8  84443661.77047  20621994.750    20622000.563          49.400
        42.700
 22  1  1  1 17 30.0000000  0  9G19G03G30G17G21G08G01G07G14
 125927931.291 6  98125741.34244  23963302.383    23963305.852          40.200
        25.000
 126639583.912 6  98680229.42343  24098705.305    24098714.750          36.000
        21.100
 117433041.702 7  91506303.14245  22346758.570    22346767.137          45.300
        34.500
 115271567.484 7  89822124.83646  21935469.492    21935474.953          47.600
        38.000
 114903007.153 8  89534860.00846  21865303.289    21865307.930          49.000
        39.200
 124929450.980 6  97347716.17846  23773276.633    23773285.609          40.300
        36.900
 104872877.707 8  81719175.30747  19956634.406    19956643.266          51.700
        45.100
 122717988.616 6  95624410.50444  23352448.070    23352454.469          41.600
        26.000
 108327756.023 8  84411164.73547  20614058.766    20614064.695          48.900
        42.400
 22  1  1  1 18  0.0000000  0  9G19G03G30G17G21G08G01G07G14
 125833332.887 6  98052028.34744  23945301.086    23945304.965          39.800
        24.900
 126538192.556 6  98601223.22143  24079410.570    24079420.543          36.800
        20.400
 117509328.148 7  91565747.10045  22361275.313    22361284.113          44.900
        34.400
 115212826.414 7  89776352.57946  21924291.828    21924297.523          46.600
        37.900
 114971916.917 8  89588555.92546  21878416.109    21878420.750          48.100
        38.600
 125019121.935 6  97417589.61446  23790341.875    23790349.738          41.200
        36.800
 104877642.285 8  81722887.96547  19957541.359    19957549.809          51.700
        45.600
 122822317.394 6  95705705.61744  23372299.750    23372307.086          40.500
        25.200
 108286473.452 8  84378996.50047  20606203.211    20606208.438          50.000
        42.600
 22  1  1  1 18 30.0000000  0 10G19G13G03G30G17G21G08G01G07G14
 125738838.793 6  97978396.60844  23927319.586    23927323.230          39.900
        25.800
 134318064.78715 104663387.35952  25559862.820    25559867.988          35.400
        17.800
 126436917.113 6  98522307.34643  24060138.859    24060148.656          36.200
        21.100
 117586006.832 7  91625496.69145  22375867.070    22375875.520          44.700
        34.200
 115154293.247 7  89730742.32246  21913153.891    21913158.883          47.900
        37.800
 115041141.598 7  89642497.23846  21891589.328    21891593.676          47.500
        38.300
 125108852.149 6  97487509.24246  23807416.469    23807424.684          39.700
        36.400
 104883046.294 8  81727098.88947  19958569.320    19958577.535          51.100
        45.600
 122926799.902 6  95787120.50644  23392182.805    23392188.676          40.600
        24.700
 108245614.514 8  84347158.36847  20598427.891    20598433.352          49.600
        42.900
 22  1  1  1 19  0.0000000  0 10G19G13G03G30G17G21G08G01G07G14
 125644449.161 6  97904846.27144  23909357.969    23909361.496          40.800
        25.400
 134389228.999 6 104718839.99243  25573406.398    25573411.391          37.800
        18.300
 126335760.641 6  98443484.16343  24040889.953    24040899.750          38.500
        22.900
 117663075.109 7  91685549.87645  22390532.828    22390541.219          45.800
        33.900
 115095967.580 7  89685293.75746  21902054.016    21902059.418          47.900
        38.700
 115110679.330 8  89696682.48646  21904822.078    21904826.953          49.000
        38.900
 125198641.381 6  97557474.85145  23824502.141    23824510.941          39.400
        35.300
 104889088.925 8  81731807.43547  19959719.086    19959728.004          52.100
        45.200
 123031432.913 6  95868652.66843  23412094.242    23412099.996          40.500
        22.600
 108205181.054 8  84315651.77547  20590733.977    20590739.262          49.700
        43.300
 22  1  1  1 19 30.0000000  0 10G19G13G03G30G17G21G08G01G07G14
 125550165.224 6  97831378.29444  23891415.406    23891418.875          41.000
        24.700
 134460643.767 6 104774487.83742  25586995.227    25587001.625          37.000
        15.600
 126234726.695 6  98364756.45344  24021663.523    24021673.438          38.600
        25.800
 117740530.311 7  91745904.55045  22405271.969    22405279.891          45.300
        33.600
 115037850.239 8  89640007.52246  21890994.961    21891000.188          48.200
        38.600
 115180527.251 7  89751109.43646  21918113.266    21918117.789          46.500
        38.300
 125288489.079 6  97627486.04045  23841600.852    23841608.188          39.600
        35.400
 104895769.434 8  81737013.03047  19960990.516    19960998.965          50.700
        45.300
 123136213.431 6  95950299.81743  23432033.242    23432039.113          40.600
        22.800
 108165174.861 8  84284478.11647  20583120.516    20583126.035          49.700
        42.300
 22  1  1  1 20  0.0000000  0 10G19G13G03G30G17G21G08G01G07G14
 125455987.621 6  97757993.17243  23873494.297    23873497.766          39.500
        21.800
 134532306.406 6 104830328.80442  25600632.961    25600638.012          38.400
        16.300
 126133818.709 6  98286126.89343  24002460.750    24002471.426          39.400
        23.800
 117818370.059 7  91806558.87945  22420084.539    22420093.398          45.100
        33.900
 114979941.706 8  89594884.00346  21879975.367    21879980.887          48.400
        37.900
 115250684.176 7  89805777.16646  21931463.875    21931468.633          47.400
        38.800
 125378394.671 6  97697542.31245  23858709.234    23858716.805          39.300
        35.700
 104903087.331 8  81742715.29347  19962383.203    19962391.711          52.000
        45.500
 123241139.098 6  96032060.03644  23451999.508    23452005.496          40.900
        24.700
 108125598.055 8  84253639.05147  20575589.883    20575595.168          50.200
        43.100
 22  1  1  1 20 30.0000000  0 10G19G13G03G30G17G21G08G01G07G14
 125361916.862 6  97684691.29644  23855593.523    23855596.523          39.900
        24.200
 134604213.254 6                  25614315.734                          36.500

 126033039.282 6  98207597.50144  23983283.516    23983293.137          39.500
        24.600
 117896590.924 7  91867510.16945  22434969.352    22434978.035          44.300
        34.000
 114922241.684 8  89549922.96646  21868995.719    21869000.535          48.500
        37.900
 115321147.039 8  89860683.29346  21944872.609    21944877.309          48.200
        38.900
 125468356.903 6  97767642.72845  23875826.797    23875836.359          39.600
        35.800
 104911041.006 8  81748912.97247  19963896.750    19963905.551          52.400
        45.600
 123346205.976 6  96113930.30444  23471993.047    23471999.621          41.400
        26.700
 108086451.702 8  84223135.40447  20568140.063    20568145.934          50.200
        43.200
 22  1  1  1 21  0.0000000  0 10G19G13G03G30G17G21G08G01G07G14
 125267953.855 6  97611473.42043  23837711.953    23837715.949          39.200
        23.200
 134676361.818 5                  25628045.719                          34.300

 125932392.028 6  98129171.07944  23964131.305    23964141.043          38.300
        25.300
 117975190.496 7  91928756.55045  22449926.859    22449934.723          45.000
        34.800
 114864750.225 8  89505124.43746  21858055.094    21858060.379          48.700
        38.200
 115391913.833 7  89915826.24646  21958338.719    21958343.242          47.600
        38.800
 125558375.413 6  97837786.99946  23892957.703    23892966.504          40.100
        36.100
 104919629.875 8  81755605.59847  19965531.070    19965539.578          51.500
        44.900
 123451411.590 7  96195908.68044  23492013.492    23492019.188          42.000
        25.600
 108047737.803 8  84192968.72147  20560772.781    20560778.828          48.900
        42.700
 22  1  1  1 21 30.0000000  0 10G19G13G03G30G17G21G08G01G07G14
 125174099.230 6  97538339.94444  23819852.664    23819856.250          39.800
        26.100
 134748749.60415                  25641820.398                          31.900

 125831880.235 6  98050850.23543  23945004.859    23945013.719          37.700
        21.300
 118054166.078 7  91990295.94145  22464955.281    22464963.203          44.500
        34.700
 114807467.628 8  89460488.65946  21847154.375    21847159.426          48.800
        38.200
 115462982.412 7  89971204.36246  21971863.383    21971867.262          47.000
        38.500
 125648449.619 6  97907974.64846  23910097.531    23910107.035          37.900
        36.100
 104928853.099 8  81762792.53147  19967286.063    19967294.922          50.900
        45.200
 123556752.988 6  96277992.87544  23512059.594    23512065.699          41.800
        25.700
 108009458.208 8  84163140.46947  20553488.703    20553494.691          49.700
        42.900
 22  1  1  1 22  0.0000000  0 10G19G13G03G30G17G21G08G01G07G14
 125080353.450 6  97465291.31844  23802013.047    23802017.688          39.000
        25.600
 134821373.18014                  25655640.586                          29.600

 125731507.085 6  97972637.38343  23925904.813    23925913.730          37.200
        22.000
 118133514.881 7  92052126.14345  22480054.734    22480062.891          44.000
        33.500
 114750394.599 8  89416016.18046  21836293.523    21836299.043          48.500
        38.400
 115534350.331 8  90026815.72946  21985443.961    21985448.484          48.200
        38.500
 125738578.891 6  97978205.21646  23927249.070    23927257.168          39.000
        36.000
 104938709.655 8  81770472.96947  19969161.688    19969170.547          51.600
        44.900
 123662227.293 7  96360180.61844  23532130.758    23532137.332          42.000
        27.400
 107971614.570 8  84133651.91647  20546287.344    20546292.805          50.000
        43.300
 22  1  1  1 22 30.0000000  0 10G19G13G03G30G17G21G08G01G07G14
 124986717.846 6  97392328.53444  23784195.148    23784198.441          39.400
        24.300
 134894229.65314                  25669503.867                          28.600

 125631276.140 6  97894535.42143  23906831.617    23906839.363          37.000
        22.000
 118213234.284 7  92114245.12545  22495224.656    22495232.988          44.300
        33.800
 114693531.014 8  89371706.89546  21825473.320    21825478.137          48.700
        38.400
 115606015.539 8  90082658.74546  21999081.367    21999086.008          48.900
        37.700
 125828762.161 6  98048477.84946  23944411.063    23944419.453          38.900
        36.500
 104949198.749 8  81778646.29047  19971157.898    19971166.465          52.700
        45.200
 123767831.553 6  96442469.58744  23552226.203    23552232.543          40.800
        26.500
 107934208.780 8  84104504.54847  20539169.219    20539174.738          49.700
        43.000
 22  1  1  1 23  0.0000000  0  9G19G03G30G17G21G08G01G07G14
 124893192.919 6  97319451.98944  23766398.383    23766401.852          38.800
        24.700
 125531190.405 6  97816546.55043  23887785.539    23887794.164          37.900
        22.000
 118293321.381 7  92176650.62945  22510465.320    22510473.359          44.400
        33.700
 114636877.190 8  89327561.07946  21814692.109    21814697.043          48.100
        39.000
 115677975.660 8  90138731.57446  22012774.492    22012779.426          48.000
        37.800
 125918999.242 6  98118792.41745  23961583.086    23961591.184          39.200
        35.300
 104960319.194 8  81787311.58147  19973273.797    19973282.539          52.500
        45.500
 123873562.325 6  96524857.16344  23572345.852    23572353.188          40.200
        25.600
 107897242.387 8  84075699.56447  20532134.594    20532140.406          49.600
        42.800
 22  1  1  1 23 30.0000000  0  9G19G03G30G17G21G08G01G07G14
 124799779.122 6  97246662.05144  23748621.289    23748625.402          37.600
        25.100
 125431253.070 6  97738673.29043  23868769.070    23868776.758          38.700
        22.800
 118373773.253 7  92239340.38245  22525774.648    22525783.156          43.900
        33.900
 114580432.993 8  89283578.59846  21803951.234    21803956.813          48.800
        38.400
 115750228.104 8  90195032.18146  22026524.031    22026528.496          48.800
        38.300
 126009289.055 6  98189148.09945  23978764.680    23978772.367          39.800
        34.800
 104972069.843 8  81796467.93147  19975509.844    19975518.469          52.400
        45.100
 123979417.114 6  96607341.37044  23592489.883    23592496.398          38.700
        25.000
 107860716.963 8  84047238.19647  20525184.188    20525190.352          50.300
        43.200
 22  1  1  1 24  0.0000000  0  9G19G03G30G17G21G08G01G07G14
 124706477.026 6  97173959.15544  23730867.719    23730871.070          38.300
        26.700
 125331467.290 6  97660918.13943  23849779.266    23849788.652          38.400
        22.900
 118454587.004 7  92302312.11245  22541153.117    22541161.625          44.700
        33.500
 114524198.314 8  89239759.38546  21793249.914    21793255.434          48.000
        38.600
 115822771.474 8  90251559.47946  22040329.992    22040332.758          48.400
        37.900
 126099631.088 6  98259544.45745  23995955.141    23995963.648          39.900
        35.400
 104984449.608 8  81806114.51147  19977865.242    19977874.336          52.700
        45.300
 124085392.643 6  96689919.65943  23612655.805    23612662.027          38.000
        22.800
 107824634.157 8  84019121.71747  20518317.828    20518323.348          49.900
        43.000
 22  1  1  1 24 30.0000000  0  9G19G03G30G17G21G08G01G07G14
 124613287.088 6  97101343.64644  23713133.711    23713137.473          38.300
        25.600
 125231836.100 6  97583283.45043  23830819.203    23830828.590          38.600
        23.800
 118535759.568 7  92365563.43545  22556599.930    22556607.559          43.900
        34.100
 114468173.345 7  89196103.58046  21782588.797    21782593.730          47.200
        38.900
 115895602.517 7  90308310.94246  22054187.438    22054192.313          47.400
        37.700
 126190024.683 6  98329981.00645  24013157.008    24013165.809          39.400
        35.900
 104997457.082 8  81816250.20847  19980341.039    19980349.723          52.500
        44.900
 124191485.582 6  96772589.42543  23632844.766    23632851.633          37.200
        21.800
 107788995.303 8  83991351.18047  20511535.961    20511541.598          50.200
        42.700
 22  1  1  1 25  0.0000000  0  9G19G03G30G17G21G08G01G07G14
 124520210.524 6  97028816.51244  23695421.578    23695425.457          39.200
        26.400
 125132363.094 6  97505772.04344  23811890.555    23811899.941          39.800
        25.900
 118617288.372 7  92429092.34045  22572113.570    22572121.434          43.200
        33.100
 114412358.653 8  89152611.62946  21771967.633    21771972.684          49.000
        38.500
 115968719.524 7  90365285.23646  22068101.516    22068105.863          47.200
        37.800
 126280468.824 6  98400456.92145  24030368.031    24030376.656          39.700
        35.500
 105011091.458 8  81826874.40147  19982935.469    19982944.152          51.600
        45.300
 124297693.187 6  96855348.55043  23653055.602    23653061.883          38.300
        22.800
 107753802.399 8  83963928.14447  20504838.930    20504844.918          50.200
        43.000
 22  1  1  1 25 30.0000000  0  9G19G03G30G17G21G08G01G07G14
 124427247.330 6  96956377.68144  23677731.141    23677734.785          40.100
        27.000
 125033051.512 6  97428386.41944  23792993.242    23793002.102          41.100
        26.900
 118699170.617 7  92492896.65345  22587696.203    22587703.539          44.700
        33.200
 114356754.430 8  89109283.66746  21761386.375    21761391.367          48.200
        39.400
 116042120.117 8  90422480.50446  22082069.703    22082073.758          48.000
        38.000
 126370963.477 6  98470972.20345  24047588.852    24047596.539          39.000
        34.700
 105025351.597 8  81837986.20347  19985649.266    19985657.598          52.000
        45.700
 124404012.665 6  96938194.87443  23673286.922    23673293.027          38.800
        22.300
 107719057.094 8  83936853.87147  20498226.984    20498232.797          49.700
        43.500
 22  1  1  1 26  0.0000000  0  9G19G03G30G17G21G08G01G07G14
 124334398.724 6  96884028.12044  23660063.078    23660066.781          41.800
        27.300
 124933904.338 6  97351128.91344  23774126.086    23774135.063          41.400
        27.300
 118781403.169 7  92556973.93845  22603343.766    22603352.391          43.900
        33.000
 114301360.212 7  89066119.35846  21750845.422    21750850.707          47.900
        39.400
 116115801.731 7  90479894.74746  22096090.055    22096094.988          47.500
        37.800
 126461507.654 6  98541526.05745  24064818.328    24064826.250          38.800
        33.600
 105040236.042 8  81849584.47647  19988481.859    19988490.543          52.300
        44.900
 124510440.548 6  97021125.68244  23693540.367    23693546.414          40.700
        24.500
 107684760.752 8  83910129.44647  20491700.750    20491706.797          49.500
        43.400
 22  1  1  1 26 30.0000000  0  9G19G03G30G17G21G08G01G07G14
 124241665.325 6  96811768.35444  23642416.461    23642419.988          41.400
        26.600
 124834924.977 6  97274002.14644  23755289.672    23755299.586          40.700
        25.800
 118863983.311 7  92621322.06845  22619057.703    22619067.031          43.200
        32.100
 114246176.422 8  89023119.00546  21740344.188    21740348.887          48.600
        38.800
 116189762.470 7  90537526.49346  22110164.625    22110169.852          47.600
        37.600
 126552100.270 6  98612117.67545  24082056.734    24082066.414          38.300
        33.700
 105055743.758 8  81861668.41347  19991432.438    19991440.945          52.200
        45.400
 124616974.221 6  97104138.94043  23713813.313    23713819.066          41.000
        22.600
 107650915.084 8  83883756.20247  20485260.289    20485266.043          49.800
        43.400
 22  1  1  1 27  0.0000000  0  9G19G03G30G17G21G08G01G07G14
 124149047.969 6  96739599.02444  23624791.141    23624795.195          39.900
        25.300
 124736116.879 6  97197008.86744  23736487.930    23736497.375          39.800
        26.500
 118946908.392 7  92685938.99945  22634838.891    22634846.754          43.800
        32.500
 114191203.625 8  88980283.07146  21729883.242    21729887.883          49.400
        38.900
 116264000.245 7  90595374.10946  22124291.742    22124296.441          46.800
        37.200
 126642741.417 6  98682747.12345  24099305.383    24099314.945          37.600
        34.000
 105071873.778 8  81874237.26547  19994501.844    19994510.762          51.300
        45.300
 124723610.720 6  97187232.29344  23734105.875    23734111.863          40.000
        24.700
 107617522.018 8  83857735.62847  20478905.695    20478911.449          50.000
        43.500
 22  1  1  1 27 30.0000000  0  9G19G03G30G17G21G08G01G07G14
 124056547.043 6  96667520.41244  23607189.445    23607193.031          39.800
        26.000
 124637483.109 6  97120151.41644  23717718.141    23717727.762          38.900
        25.500
 119030175.256 7  92750822.22245  22650683.430    22650691.996          43.800
        31.600
 114136441.958 8  88937611.65446  21719462.414    21719467.816          49.000
        39.500
 116338512.083 7  90653435.28246  22138470.539    22138475.414          47.300
        37.600
 126733429.988 6  98753413.50245  24116562.625    24116572.305          37.300
        34.200
 105088624.516 8  81887289.79247  19997689.797    19997698.070          52.000
        45.400
 124830346.981 6  97270403.36744  23754416.813    23754422.801          40.600
        26.400
 107584582.824 8  83832068.71847  20472637.680    20472643.609          49.500
        43.500
 22  1  1  1 28  0.0000000  0  9G19G03G30G17G21G08G01G07G14
 123964163.185 6  96595533.01244  23589609.172    23589611.996          40.500
        25.300
 124539026.772 6  97043432.25943  23698981.344    23698991.727          38.200
        22.300
 119113781.051 7  92815969.56145  22666593.211    22666601.953          43.600
        32.600
 114081891.079 8  88895104.48646  21709081.820    21709086.871          49.500
        39.500
 116413296.669 7  90711708.98746  22152701.664    22152706.539          47.700
        37.100
 126824165.570 6  98824116.52445  24133830.164    24133838.613          38.400
        33.100
 105105994.810 8  81900825.09147  20000995.109    20001003.383          52.100
        45.300
 124937179.848 6  97353649.74644  23774746.031    23774752.254          38.900
        24.400
 107552099.163 8  83806756.77447  20466456.102    20466461.914          49.800
        43.500
 22  1  1  1 28 30.0000000  0  9G19G03G30G17G21G08G01G07G14
 123871897.262 6  96523637.49644  23572051.188    23572055.359          40.100
        26.300
 124440751.188 6  96966853.91843  23680280.555    23680290.879          37.800
        22.600
 119197722.742 7  92881378.63345  22682567.297    22682575.863          44.000
        32.700
 114027551.567 8  88852762.01446  21698741.297    21698746.113          49.600
        39.400
 116488351.112 7  90770192.97446  22166984.164    22166988.688          47.300
        37.100
 126914947.158 6  98894855.40745  24151104.484    24151113.813          38.100
        33.100
 105123983.152 8  81914841.98047  20004418.359    20004426.516          52.200
        45.200
 125044106.277 5  97436968.92843  23795091.789    23795100.414          35.500
        21.800
 107520072.469 8  83781800.90747  20460361.711    20460367.582          49.800
        43.400
 22  1  1  1 29  0.0000000  0  9G19G03G30G17G21G08G01G07G14
 123779749.963 6  96451834.44744  23554516.047    23554520.043          39.400
        25.800
 124342660.057 6  96890419.32343  23661614.789    23661624.527          38.300
        22.900
 119281997.894 7  92947047.57045  22698604.250    22698612.172          43.800
        33.800
 113973423.307 8  88810584.16546  21688440.891    21688445.883          49.000
        39.200
 116563673.332 7  90828885.60346  22181317.625    22181321.914          47.500
        36.600
 127005774.874 6  98965630.21645  24168389.102    24168397.902          38.400
        33.000
 105142588.731 8  81929339.84047  20007958.945    20007967.043          51.600
        45.300
 125151124.074 6  97520359.38243  23815457.602    23815465.172          36.000
        23.000
 107488504.747 8  83757202.68947  20454354.391    20454360.496          49.800
        43.200
 22  1  1  1 29 30.0000000  0  9G19G03G30G17G21G08G01G07G14
 123687721.891 6  96380124.26144  23537003.086    23537007.668          38.300
        25.300
 124244756.241 6  96814130.67744  23642983.875    23642992.969          38.600
        24.300
 119366603.277 7  93012973.82545  22714703.891    22714712.926          43.700
        32.800
 113919506.708 8  88768571.24446  21678181.344    21678185.984          49.600
        39.400
 116639260.880 7  90887785.00446  22195701.086    22195706.020          47.100
        36.900
 127096647.685 6  99036440.15645  24185681.719    24185689.934          37.700
        33.500
 105161809.886 8  81944317.36547  20011616.430    20011624.879          51.900
        44.800
 125258229.739 6  97603818.29143  23835839.023    23835847.063          36.900
        22.900
 107457397.274 8  83732963.09747  20448435.125    20448440.762          50.600
        43.800
 22  1  1  1 30  0.0000000  0  9G19G03G30G17G21G08G01G07G14
 123595813.993 6  96308507.72844  23519514.820    23519518.230          39.800
        25.600
 124147043.318 6  96737990.78044  23624390.664    23624398.996          39.400
        26.000
 119451536.201 7  93079155.30145  22730866.641    22730874.270          43.900
        32.000
 113865801.809 8  88726723.28046  21667961.625    21667966.090          49.100
        39.200
 116715111.990 8  90946889.75446  22210135.773    22210139.535          48.800
        37.300
 127187565.025 6  99107284.79945  24202981.766    24202991.328          37.400
        33.100
 105181645.530 8  81959773.71647  20015390.766    20015399.566          52.000
        45.000
 125365420.342 6  97687343.36544  23856237.984    23856244.734          39.500
        26.600
 107426751.852 8  83709083.54747  20442603.586    20442609.164          48.400
        43.700
 22  1  1  1 30 30.0000000  0  9G19G03G30G17G21G08G01G07G14
 123504026.391 6  96236984.96144  23502048.336    23502051.746          39.500
        26.000
 124049523.910 6  96662001.65444  23605833.383    23605842.652          39.600
        27.000
 119536793.200 7  93145589.30045  22747089.805    22747098.313          43.600
        32.100
 113812308.487 8  88685040.18346  21657781.828    21657787.465          49.200
        39.200
 116791223.898 8  91006197.73746  22224618.750    22224622.746          48.700
        36.700
 127278526.143 6  99178163.54645  24220291.805    24220301.250          37.800
        34.000
 105202093.668 8  81975707.33647  20019282.117    20019290.801          52.300
        45.000
 125472692.467 6  97770932.01343  23876651.102    23876657.383          39.900
        22.300
 107396569.451 8  83685564.78447  20436860.039    20436865.266          50.100
        43.900
 22  1  1  1 31  0.0000000  0  9G19G03G30G17G21G08G01G07G14
 123412360.077 6  96165556.68044  23484604.258    23484607.551          39.400
        27.100
 123952201.697 6  96586166.20044  23587312.766    23587322.563          39.200
        26.500
 119622371.626 7  93212273.74745  22763375.266    22763383.363          43.200
        31.800
 113759027.213 8  88643522.31146  21647642.859    21647648.145          49.400
        39.800
 116867594.867 8  91065707.59146  22239152.266    22239156.848          48.000
        37.300
 127369530.396 6  99249075.89345  24237610.523    24237618.211          38.400
        33.500
 105223153.269 8  81992117.41947  20023289.734    20023298.301          52.800
        44.700
 125580043.471 6  97854582.11443  23897079.656    23897085.469          40.200
        21.700
 107366851.954 8  83662408.29847  20431204.875    20431210.688          50.100
        43.900
 22  1  1  1 31 30.0000000  0  9G19G03G30G17G21G08G01G07G14
 123320815.977 6  96094223.62544  23467184.492    23467187.609          40.800
        26.700
 123855080.209 6  96510487.18244  23568831.633    23568841.195          40.300
        26.500
 119708268.859 7  93279206.59845  22779720.758    22779729.207          42.600
        31.200
 113705958.278 8  88602169.90546  21637544.125    21637549.059          49.500
        39.400
 116944222.621 8  91125417.52646  22253733.281    22253737.805          48.200
        36.200
 127460577.513 6  99320021.66645  24254934.695    24254944.141          37.800
        33.400
 105244823.198 8  82009003.08047  20027413.359    20027421.750          52.300
        44.600
 125687470.776 6  97938291.70643  23917521.094    23917527.785          40.700
        21.100
 107337601.130 8  83639615.44447  20425638.750    20425644.328          50.300
        43.900
 22  1  1  1 32  0.0000000  0  9G19G03G30G17G21G08G01G07G14
 123229394.651 6  96022986.22544  23449788.047    23449790.930          40.500
        28.000
 123758162.288 6  96434966.76344  23550389.414    23550398.625          40.400
        27.400
 119794481.622 7  93346385.33245  22796125.516    22796134.023          42.900
        31.400
 113653102.106 8  88560983.29146  21627485.430    21627490.949          49.300
        39.200
 117021104.258 8  91185325.29946  22268363.195    22268368.305          49.000
        36.600
 127551666.359 6  99390999.92645  24272269.156    24272277.898          38.200
        35.100
 105267101.628 8  82026362.89847  20031652.367    20031660.934          52.100
        44.900
 125794971.060 6  98022058.17043  23937978.188    23937985.055          40.200
        21.800
 107308818.178 8  83617187.16447  20420161.578    20420167.449          50.100
        44.700
 22  1  1  1 32 30.0000000  0  9G19G03G30G17G21G08G01G07G14
 123138096.786 6  95951845.06544  23432413.867    23432417.336          40.800
        27.500
 123661451.048 6  96359607.41344  23531985.477    23531994.219          40.700
        26.700
 119881006.800 7  93413807.51045  22812592.172    22812600.621          42.600
        32.300
 113600457.900 8  88519961.82946  21617467.828    21617473.113          50.100
        39.600
 117098237.945 8  91245429.46646  22283042.070    22283046.242          48.000
        36.100
 127642796.486 6  99462010.35345  24289610.625    24289619.484          37.700
        33.900
 105289986.928 8  82044195.60647  20036007.789    20036015.887          52.400
        44.500
 125902541.062 6  98105878.92043  23958448.977    23958455.199          39.700
        21.800
 107280504.429 8  83595124.50447  20414773.344    20414779.391          50.900
        44.100
 22  1  1  1 33  0.0000000  0  9G19G03G30G17G21G08G01G07G14
 123046922.636 6  95880800.32244  23415064.820    23415067.527          40.300
        28.800
 123564950.038 6  96284411.85344  23513621.078    23513631.285          39.100
        26.100
 119967841.705 6  93481471.01645  22829115.305    22829124.691          41.700
        30.300
 113548026.085 8  88479105.87346  21607490.516    21607495.566          49.600
        39.400
 117175621.726 7  91305728.51646  22297766.711    22297771.938          47.500
        36.100
 127733967.629 6  99533052.78945  24306959.680    24306968.773          37.500
        33.300
 105313477.852 8  82062500.22547  20040477.719    20040486.285          52.200
        44.900
 126010178.278 6  98189752.03643  23978931.109    23978937.977          38.500
        20.900
 107252661.595 8  83573428.79147  20409475.047    20409480.742          50.200
        43.900
 22  1  1  1 33 30.0000000  0  9G19G03G30G17G21G08G01G07G14
 122955873.459 6  95809852.92544  23397738.172    23397741.641          40.800
        27.900
 123468662.772 6  96209382.85344  23495298.531    23495307.273          40.000
        28.300
 120054983.520 6  93549373.71945  22845698.500    22845707.184          41.600
        31.000
 113495807.367 8  88438415.96346  21597553.383    21597559.020          48.500
        39.600
 117253253.373 7  91366220.70745  22312540.172    22312544.695          47.800
        35.800
 127825179.180 6  99604126.66645  24324315.898    24324325.637          37.300
        33.100
 105337573.146 8  82081275.78147  20045062.836    20045071.402          51.800
        44.500
 126117879.902 6  98273675.34343  23999425.867    23999433.203          37.600
        20.100
 107225291.423 8  83552101.37747  20404266.930    20404272.684          49.800
        44.500
 22  1  1  1 34  0.0000000  0  9G19G03G30G17G21G08G01G07G14
 122864949.573 6  95739003.18444  23380435.492    23380439.781          41.100
        28.300
 123372592.089 6  96134522.64844  23477016.859    23477026.715          40.800
        27.500
 120142428.931 6  93617512.95845  22862338.547    22862347.934          41.800
        31.200
 113443801.630 8  88397892.01746  21587657.523    21587662.809          49.800
        40.200
 117331130.296 8  91426904.02146  22327359.172    22327364.047          48.100
        36.100
 127916430.258 5  99675231.34245  24341681.492    24341690.527          35.800
        31.700
 105362270.799 8  82100520.71047  20049762.719    20049770.992          51.700
        44.700
 126225642.709 6  98357646.31143  24019933.242    24019939.758          38.100
        20.900
 107198394.947 8  83531143.08247  20399148.461    20399154.215          50.500
        44.300
 22  1  1  1 34 30.0000000  0  9G19G03G30G17G21G08G01G07G14
 122774151.953 6  95668251.81044  23363157.578    23363161.281          41.100
        29.300
 123276741.441 6  96059833.90544  23458777.563    23458786.773          40.500
        27.100
 120230175.176 6  93685886.61945  22879036.023    22879045.234          41.800
        30.600
 113392009.096 8  88357534.19346  21577801.641    21577806.633          49.400
        40.300
 117409250.370 8  91487776.80945  22342224.961    22342230.246          48.300
        35.900
 128007720.337 6  99746366.44245  24359053.352    24359062.445          36.800
        32.300
 105387569.525 8  82120234.00847  20054577.234    20054584.980          51.700
        44.800
 126333463.676 6  98441662.57943  24040449.461    24040457.383          37.800
        21.300
 107171973.823 8  83510555.18947  20394120.836    20394126.121          50.300
        44.300
 22  1  1  1 35  0.0000000  0  9G19G03G30G17G21G08G01G07G14
 122683481.315 6  95597599.40644  23345904.195    23345906.727          41.100
        29.100
 123181114.341 6  95985319.35744  23440579.789    23440589.000          39.400
        26.700
 120318219.478 6  93754492.54245  22895790.516    22895798.848          41.900
        30.900
 113340429.864 8  88317342.58946  21567986.297    21567991.113          50.000
        40.000
 117487611.598 8  91548837.50545  22357136.922    22357141.621          48.100
        35.800
 128099049.302 6  99817531.81845  24376433.305    24376440.992          37.100
        32.700
 105413467.986 8  82140414.62547  20059505.258    20059513.883          51.600
        44.200
 126441339.832 6  98525721.88143  24060979.453    24060985.383          39.100
        22.500
 107146029.755 8  83490339.03347  20389183.414    20389189.520          50.800
        43.900
 22  1  1  1 35 30.0000000  0  9G19G03G30G17G21G08G01G07G14
 122592938.141 6  95527046.28544  23328673.563    23328676.797          40.100
        28.500
 123085713.797 6  95910981.34744  23422424.727    23422434.758          38.000
        25.500
 120406558.646 6  93823328.21545  22912600.844    22912610.055          41.700
        30.500
 113289064.223 8  88277317.41746  21558211.508    21558216.676          49.600
        39.800
 117566211.764 7  91610084.39145  22372093.961    22372098.484          47.900
        35.200
 128190416.047 6  99888726.65045  24393820.266    24393827.836          37.100
        32.700
 105439964.354 8  82161061.14747  20064547.352    20064555.801          51.600
        45.100
 126549268.668 6  98609822.20343  24081516.203    24081523.539          39.800
        22.600
 107120563.975 8  83470495.56147  20384337.914    20384343.727          50.700
        44.100
 22  1  1  1 36  0.0000000  0  9G19G03G30G17G21G08G01G07G14
 122502523.214 6  95456593.11544  23311468.688    23311471.512          40.600
        27.200
 122990542.974 6  95836822.29044  23404315.039    23404324.133          38.800
        26.900
 120495189.657 6  93892391.31145  22929466.563    22929475.539          41.800
        30.900
 113237912.036 8  88237458.57246  21548477.734    21548482.785          49.400
        40.000
 117645048.454 7  91671515.57345  22387095.953    22387101.063          47.500
        35.200
 128281820.157 6  99959950.55445  24411212.336    24411221.781          37.100
        32.700
 105467056.946 8  82182172.26747  20069702.656    20069710.871          50.900
        44.300
 126657247.133 6  98693961.24244  24102065.000    24102071.223          41.100
        24.600
 107095577.804 8  83451025.81947  20379583.102    20379589.031          50.400
        44.300
 22  1  1  1 36 30.0000000  0  9G19G03G30G17G21G08G01G07G14
 122412237.097 6  95386240.36044  23294286.914    23294291.496          40.100
        27.800
 122895605.143 6  95762844.80044  23386249.422    23386258.164          40.700
        26.500
 120584109.465 6  93961679.45045  22946388.031    22946396.656          41.800
        30.400
 113186974.290 8  88197766.82346  21538784.352    21538789.344          48.900
        40.400
 117724119.277 7  91733129.19545  22402142.391    22402146.797          47.400
        35.600
 128373261.010 6 100031203.13145  24428614.234    24428622.566          37.400
        33.400
 105494744.112 8  82203746.68147  20074971.555    20074980.121          50.400
        44.400
 126765272.070 6  98778136.47243  24122621.102    24122628.203          39.900
        23.000
 107071072.668 8  83431930.90447  20374919.945    20374925.641          50.700
        44.300
 22  1  1  1 37  0.0000000  0  9G19G03G30G17G21G08G01G07G14
 122322080.742 6  95315988.67644  23277130.859    23277134.504          40.700
        27.400
 122800903.813 6  95689051.58544  23368228.406    23368237.207          41.100
        27.500
 120673315.273 7  94031190.42645  22963363.156    22963372.074          43.200
        31.200
 113136250.269 8  88158241.61546  21529132.109    21529137.746          49.100
        40.800
 117803422.701 7  91794924.07245  22417234.352    22417238.113          47.600
        35.500
 128464737.882 5 100102483.72845  24446020.094    24446030.008          35.000
        31.500
 105523024.389 8  82225783.26147  20080353.242    20080361.457          50.900
        44.400
 126873340.942 6  98862345.93343  24143185.203    24143192.129          39.000
        22.000
 107047050.160 8  83413212.06647  20370348.539    20370354.234          50.200
        44.700
 22  1  1  1 37 30.0000000  0  9G19G03G30G17G21G08G01G07G14
 122232054.548 6  95245838.41244  23260000.133    23260003.016          41.800
        27.700
 122706442.040 6  95615445.01844  23350251.320    23350261.352          40.800
        26.500
 120762803.857 7  94100921.72745  22980391.992    22980401.320          42.300
        30.200
 113085740.090 8  88118883.03646  21519520.406    21519525.340          48.800
        39.900
 117882956.218 8  91856898.24245  22432368.766    22432373.055          48.100
        35.600
 128556250.700 6 100173792.37645  24463434.563    24463444.301          36.500
        31.700
 105551895.917 8  82248280.55947  20085847.203    20085855.887          51.100
        45.100
 126981450.355 6  98946586.97143  24163757.758    24163765.035          37.900
        19.000
 107023511.451 8  83394870.21547  20365868.695    20365874.742          50.300
        44.500
 22  1  1  1 38  0.0000000  0  9G19G03G30G17G21G08G01G07G14
 122142159.545 6  95175790.36944  23242893.039    23242896.273          41.700
        28.300
 122612223.199 6  95542027.74044  23332323.648    23332332.156          41.500
        26.900
 120852572.496 7  94170871.26945  22997475.156    22997483.488          42.700
        30.900
 113035444.338 8  88079691.54446  21509949.016    21509954.242          48.000
        40.100
 117962717.513 8  91919049.90845  22447546.820    22447551.227          48.400
        35.500
 128647798.951 6 100245128.66545  24480856.789    24480865.414          36.900
        31.600
 105581357.181 8  82271237.38847  20091453.609    20091461.883          51.200
        44.700
 127089597.686 6  99030857.65343  24184337.117    24184344.512          37.300
        18.600
 107000458.135 8  83376906.58247  20361482.391    20361488.086          50.000
        44.400
 22  1  1  1 38 30.0000000  0  9G19G03G30G17G21G08G01G07G14
 122052396.387 6  95105845.04844  23225810.664    23225814.719          41.100
        26.800
 122518250.680 7  95468802.45444  23314441.305    23314449.988          42.400
        27.000
 120942617.958 7  94241036.53745  23014610.898    23014618.996          43.000
        30.600
 112985362.985 7  88040667.11546  21500419.367    21500424.418          47.800
        40.000
 118042704.401 8  91981377.35545  22462767.695    22462772.219          48.000
        35.700
 128739381.471 6 100316491.62445  24498284.430    24498293.055          36.600
        31.400
 105611406.413 8  82294652.37947  20097171.805    20097180.020          51.700
        44.400
 127197779.830 5  99115155.39842  24204923.039    24204930.844          35.700
        16.900
 106977891.504 8  83359322.19547  20357187.914    20357193.961          50.300
        44.100
 22  1  1  1 39  0.0000000  0 10G19G06G03G30G17G21G08G01G07G14
 121962765.583 6  95036002.90244  23208755.617    23208759.320          41.800
        28.200
 133331636.61615                  25372175.313                          32.500

 122424527.551 6  95395771.54044  23296605.672    23296614.707          41.600
        28.500
 121032937.419 6  94311415.27344  23031797.070    23031805.988          41.300
        29.700
 112935496.708 8  88001810.27446  21490930.055    21490935.047          48.400
        40.000
 118122914.916 8  92043879.04945  22478031.258    22478036.309          48.400
        35.200
 128830997.873 6 100387881.00345  24515718.414    24515726.570          37.900
        30.600
 105642041.855 8  82318524.15247  20103001.211    20103009.895          51.700
        44.100
 127305994.189 5  99199478.24242  24225516.039    24225523.551          35.000
        17.400
 106955812.870 8  83342118.06547  20352986.797    20352992.609          50.300
        44.600
 22  1  1  1 39 30.0000000  0 10G19G06G03G30G17G21G08G01G07G14
 121873267.966 6  94966264.54044  23191724.789    23191728.551          41.700
        28.600
 133218843.88615                  25350708.547                          32.800

 122331056.978 6  95322937.43544  23278818.813    23278828.023          41.600
        27.600
 121123527.681 6  94382005.07445  23049035.930    23049044.672          41.900
        30.000
 112885845.007 8  87963120.63746  21481481.813    21481486.512          48.600
        40.100
 118203346.541 7  92106553.04445  22493336.844    22493341.543          47.500
        35.300
 128922647.744 6 100459296.45545  24533158.297    24533167.215          38.100
        30.200
 105673261.680 8  82342851.29147  20108942.352    20108950.332          51.600
        44.300
 127414237.671 5  99283823.82643  24246115.148    24246121.840          35.600
        18.600
 106934223.536 8  83325295.19947  20348878.023    20348883.660          50.300
        44.500
 22  1  1  1 40  0.0000000  0 10G19G06G03G30G17G21G08G01G07G14
 121783904.388 6  94896630.62044  23174719.383    23174722.676          40.100
        28.800
 133106106.729 5                  25329257.820                          32.800

 122237842.428 6  95250302.75744  23261080.641    23261089.734          40.700
        27.900
 121214385.946 6  94452803.72644  23066326.258    23066334.766          41.800
        29.500
 112836408.336 8  87924598.55846  21472074.172    21472079.047          48.300
        40.100
 118283997.397 7  92169397.86445  22508684.328    22508688.676          47.800
        34.800
 129014330.924 6 100530737.83945  24550604.945    24550614.156          37.900
        31.500
 105705064.414 8  82367632.64347  20114994.172    20115002.387          51.900
        44.500
 127522507.555 6  99368189.97543  24266716.773    24266724.227          37.300
        19.900
 106913125.047 8  83308854.82047  20344863.664    20344868.598          50.800
        44.700
 22  1  1  1 40 30.0000000  0 10G19G06G03G30G17G21G08G01G07G14
 121694675.033 6  94827101.26644  23157740.039    23157742.629          40.900
        28.700
 132993426.701 5                  25307813.086                          31.500

 122144887.034 6  95177870.03244  23243391.758    23243401.086          41.300
        26.700
 121305509.065 6  94523808.68644  23083666.109    23083674.676          41.000
        29.500
 112787186.947 8  87886244.22746  21462707.906    21462712.254          49.500
        40.200
 118364865.036 7  92232411.60645  22524072.852    22524077.668          47.700
        35.300
 129106046.312 6 100602204.37944  24568058.656    24568066.168          37.100
        29.600
 105737448.079 8  82392866.67347  20121156.359    20121165.043          51.800
        44.100
 127630800.881 6  99452574.36943  24287325.938    24287332.688          39.000
        22.300
 106892518.587 8  83292797.83747  20340942.453    20340947.797          51.200
        44.700
 22  1  1  1 41  0.0000000  0 10G19G06G03G30G17G21G08G01G07G14
 121605581.123 6  94757677.47244  23140785.938    23140789.406          41.400
        28.500
 132880805.766 5 103543528.91752  25286382.656    25286387.824          32.000
        14.800
 122052194.213 6  95105641.89044  23225753.102    23225762.020          41.900
        28.500
 121396894.119 6  94595017.81344  23101055.938    23101064.973          41.200
        29.600
 112738181.361 8  87848058.06546  21453382.266    21453386.730          49.800
        40.700
 118445947.762 7  92295592.94445  22539502.688    22539507.152          47.800
        34.200
 129197793.394 6 100673695.57145  24585517.180    24585526.039          37.100
        31.800
 105770411.006 8  82418552.07247  20127429.125    20127437.457          51.600
        44.300
 127739114.747 6  99536974.75743  24307936.961    24307943.711          39.800
        23.800
 106872405.614 8  83277125.38547  20337114.789    20337120.836          51.200
        44.600
 22  1  1  1 41 30.0000000  0 10G19G06G03G30G17G21G08G01G07G14
 121516623.223 6  94688359.65544  23123856.570    23123860.918          41.000
        28.400
 132768245.422 5 103455819.52242  25264963.375    25264971.004          31.300
        14.800
 121959766.996 6  95033620.73544  23208164.102    23208173.371          41.400
        27.800
 121488537.904 6  94666428.51444  23118495.156    23118504.660          41.000
        29.600
 112689390.894 8  87810039.51546  21444097.648    21444102.289          49.600
        40.500
 118527243.060 7  92358939.94145  22554972.172    22554976.754          47.200
        35.300
 129289571.767 6 100745211.15945  24602981.664    24602990.523          36.000
        30.600
 105803951.188 8  82444687.27647  20133811.609    20133819.883          51.800
        44.500
 127847446.046 6  99621388.73844  24328551.461    24328559.148          40.400
        24.600
 106852787.188 8  83261838.29747  20333381.359    20333387.113          51.600
        44.700
 22  1  1  1 42  0.0000000  0 10G19G06G03G30G17G21G08G01G07G14
 121427802.045 6  94619148.37244  23106955.297    23106958.473          41.400
        29.900
 132655747.43215 103368158.78552  25243555.031    25243565.180          30.800
        16.900
 121867608.627 6  94961809.00544  23190627.352    23190636.621          41.700
        28.000
 121580437.492 6  94738038.55944  23135982.391    23135991.895          40.300
        29.300
 112640816.091 8  87772189.02646  21434854.414    21434858.996          50.300
        41.000
 118608748.962 7  92422451.03245  22570482.359    22570487.000          47.000
        34.400
 129381381.196 6 100816750.92345  24620452.320    24620461.648          37.100
        30.900
 105838066.850 8  82471270.90447  20140303.766    20140312.039          51.600
        44.200
 127955792.198 6  99705814.29843  24349169.664    24349176.531          40.200
        23.300
 106833664.676 8  83246937.63247  20329742.570    20329748.617          51.300
        44.600
 22  1  1  1 42 30.0000000  0 10G19G06G03G30G17G21G08G01G07G14
 121339118.391 6  94550044.24345  23090079.492    23090082.609          41.300
        30.500
 132543313.875 5 103280548.29142  25222159.695    25222169.316          32.000
        16.300
 121775722.681 6  94890209.56344  23173142.336    23173151.605          41.700
        29.800
 121672590.094 6  94809845.77744  23153519.258    23153528.176          41.100
        29.000
 112592457.459 8  87734506.98146  21425651.719    21425656.652          50.300
        40.700
 118690463.299 7  92486124.53845  22586031.906    22586036.313          46.900
        33.700
 129473220.405 5 100888313.85745  24637929.438    24637938.414          35.900
        31.400
 105872756.413 8  82498301.73847  20146904.844    20146913.176          52.100
        43.900
 128064150.449 6  99790249.24243  24369789.828    24369795.758          38.300
        21.300
 106815039.603 8  83232424.58347  20326198.781    20326204.418          51.300
        44.700
 22  1  1  1 43  0.0000000  0 10G19G06G03G30G17G21G08G01G07G14
 121250572.786 6  94481047.69745  23073229.805    23073233.273          41.500
        30.200
 132430946.314 5 103192989.16142  25200777.266    25200787.473          33.700
        17.800
 121684112.165 7  94818824.74444  23155709.977    23155718.016          42.400
        28.500
 121764992.368 6  94881847.52644  23171103.102    23171111.961          41.500
        29.400
 112544314.858 8  87696993.26946  21416490.688    21416495.328          50.500
        40.500
 118772383.791 7  92549958.68845  22601621.289    22601625.813          46.900
        34.300
 129565089.735 5 100959900.28745  24655410.961    24655420.641          35.600
        31.500
 105908017.726 8  82525778.08747  20153615.023    20153623.473          51.600
        43.900
 128172517.760 6  99874691.27543  24390410.742    24390417.082          38.100
        19.300
 106796912.928 8  83218299.89747  20322749.078    20322754.891          51.300
        44.700
 22  1  1  1 43 30.0000000  0 11G19G06G03G30G17G24G21G08G01G07G14
 121162166.411 6  94412159.65344  23056406.211    23056410.207          41.600
        29.700
 132318646.87415                  25179407.875                          33.200

 121592780.749 7  94747657.42044  23138329.813    23138338.789          42.300
        28.600
 121857641.708 6  94954041.77944  23188732.828    23188741.863          40.400
        28.600
 112496388.913 8  87659648.38446  21407370.141    21407375.250          49.500
        40.500
 133055358.11215                  25319607.602                          32.800

 118854508.723 7  92613952.14445  22617249.367    22617253.715          46.900
        33.800
 129656988.609 5 101031509.74145  24672899.898    24672908.172          35.000
        30.000
 105943849.343 8  82553698.83047  20160433.094    20160441.953          51.100
        44.300
 128280891.558 6  99959138.40342  24411034.469    24411040.867          37.400
        16.900
 106779286.449 8  83204564.97647  20319394.813    20319400.625          51.000
        44.800
 22  1  1  1 44  0.0000000  0 11G19G06G03G30G17G24G21G08G01G07G14
 121073899.847 7  94343380.55545  23039609.922    23039613.332          42.000
        30.200
 132206417.31015                  25158051.328                          32.600

 121501731.523 7  94676710.00644  23121003.844    23121012.703          43.100
        29.400
 121950535.116 7  95026426.22544  23206410.398    23206418.848          42.100
        29.100
 112448679.730 8  87622472.40146  21398291.164    21398296.801          49.600
        40.400
 132981981.721 5 103622425.25552  25305644.609    25305655.051          35.000
        15.600
 118936835.692 7  92678103.02345  22632914.758    22632919.984          46.300
        34.700
 129748916.144 5 101103141.53144  24690392.211    24690401.129          35.700
        29.600
 105980249.514 8  82582062.59547  20167360.250    20167368.289          51.600
        43.900
 128389269.078 6 100043588.36442  24431657.453    24431664.320          37.000
        16.300
 106762161.209 8  83191220.63047  20316135.938    20316141.984          50.500
        45.000
 22  1  1  1 44 30.0000000  0 11G19G06G03G30G17G24G21G08G01G07G14
 120985773.169 7  94274710.43145  23022839.813    23022842.988          42.600
        30.300
 132094258.36115 102930635.10053  25136708.742    25136718.305          33.700
        18.300
 121410967.006 7  94605984.42944  23103731.672    23103740.590          42.900
        29.400
 122043668.536 6  95098997.67744  23224132.391    23224142.129          40.000
        26.900
 112401186.721 8  87585464.86946  21389254.148    21389258.965          49.800
        40.600
 132909005.227 5 103565560.54152  25291757.625    25291766.426          34.600
        17.400
 119019362.283 7  92742409.45245  22648619.578    22648624.219          46.600
        34.400
 129840871.643 6 101174795.05945  24707891.438    24707900.180          36.400
        30.200
 106017215.012 8  82610866.88847  20174394.617    20174402.832          51.800
        44.900
 128497646.642 6 100128038.45142  24452281.430    24452288.121          37.100
        16.300
 106745537.559 8  83178267.13747  20312972.875    20312978.688          51.700
        45.100
 22  1  1  1 45  0.0000000  0 11G19G06G03G30G17G24G21G08G01G07G14
 120897787.278 7  94206150.02644  23006096.297    23006100.176          42.200
        29.700
 131982172.02615 102843295.17552  25115379.008    25115389.215          32.000
        17.400
 121320490.508 7  94535483.29044  23086514.469    23086523.504          42.200
        28.700
 122137039.192 6  95171754.00444  23241901.594    23241909.574          40.100
        28.300
 112353910.359 8  87548626.15846  21380257.836    21380263.297          49.900
        40.500
 132836430.917 5 103509009.10842  25277948.172    25277956.563          33.700
        16.900
 119102085.996 7  92806869.49045  22664361.711    22664366.527          46.600
        33.600
 129932854.483 6 101246469.92244  24725393.883    24725403.035          36.500
        27.900
 106054744.288 8  82640110.47547  20181536.406    20181544.738          51.500
        44.200
 128606021.350 5 100212486.27842  24472904.313    24472910.652          35.700
        13.900
 106729416.904 8  83165705.57547  20309905.094    20309910.906          51.700
        45.000
 22  1  1  1 45 30.0000000  0 11G19G06G03G30G17G24G21G08G01G07G14
 120809942.729 7  94137699.76344  22989380.547    22989383.781          43.000
        29.500
 131870160.12615 102756013.26752  25094064.289    25094073.793          32.400
        16.900
 121230305.301 7  94465209.14944  23069352.672    23069362.234          42.100
        29.300
 122230644.073 6  95244692.85244  23259713.625    23259722.719          41.500
        28.900
 112306850.271 8  87511955.97146  21371302.211    21371307.438          50.000
        40.400
 132764261.378 4 103452773.01942  25264214.031    25264223.008          29.900
        16.900
 119185004.686 7  92871481.45845  22680140.797    22680145.320          47.200
        34.400
 130024864.339 6 101318165.88444  24742904.750    24742912.965          37.000
        29.800
 106092835.467 8  82669791.91347  20188784.453    20188793.020          51.500
        43.700
 128714390.854 5 100296930.09042  24493525.242    24493533.574          35.700
        16.300
 106713800.530 8  83153536.96847  20306933.500    20306939.605          52.200
        45.400
 22  1  1  1 46  0.0000000  0 11G19G06G03G30G17G24G21G08G01G07G14
 120722240.467 7  94069360.36744  22972691.250    22972694.191          43.500
        29.500
 131758224.90515 102668791.07652  25072762.258    25072772.523          33.100
        16.300
 121140415.038 7  94395164.83244  23052247.477    23052255.984          42.500
        29.700
 122324480.528 6  95317812.15244  23277569.516    23277579.488          41.000
        28.500
 112260007.835 8  87475455.37346  21362388.852    21362394.137          49.300
        41.600
 132692499.89914                  25250557.289                          28.300

 119268117.187 7  92936244.44645  22695956.563    22695960.969          47.000
        33.700
 130116900.900 6 101389882.61045  24760418.898    24760427.582          37.300
        30.000
 106131486.995 8  82699909.99147  20196139.836    20196148.051          51.300
        43.600
 128822752.338 6 100381367.63842  24514146.438    24514153.246          36.600
        17.800
 106698689.967 8  83141762.50347  20304058.117    20304064.047          51.400
        45.300
 22  1  1  1 46 30.0000000  0 11G19G06G03G30G17G24G21G08G01G07G14
 120634681.196 7  94001132.38545  22956028.789    22956032.785          42.800
        30.200
 131646367.61815                  25051476.563                          32.600

 121050822.562 7  94325352.54444  23035198.922    23035206.727          42.200
        29.500
 122418545.132 6  95391109.19744  23295470.234    23295479.035          41.500
        29.300
 112213382.305 8  87439123.79346  21353516.148    21353521.023          48.900
        40.600
 132621147.01813                  25236981.961                          23.800

 119351421.098 7  93001156.58645  22711808.180    22711812.586          47.300
        33.600
 130208963.199 5 101461619.38645  24777936.047    24777946.137          35.100
        31.100
 106170696.439 8  82730462.80247  20203600.922    20203609.195          50.200
        44.100
 128931102.716 6 100465796.52243  24534765.672    24534772.012          36.900
        19.300
 106684085.987 8  83130382.77247  20301278.844    20301284.949          51.200
        45.500
 22  1  1  1 47  0.0000000  0 10G19G06G03G30G17G21G08G01G07G14
 120547265.942 7  93933016.61245  22939395.016    22939398.191          42.200
        30.100
 131534590.431 5 102494530.60252  25030206.539    25030216.160          34.700
        16.300
 120961531.347 6  94255775.01044  23018206.828    23018215.570          41.300
        28.600
 122512835.173 6  95464581.93144  23313412.125    23313421.219          40.600
        27.900
 112166974.131 8  87402961.58446  21344684.641    21344689.984          49.100
        40.700
 119434913.950 7  93066215.95045  22727696.313    22727701.012          47.000
        33.800
 130301051.310 6 101533376.26044  24795460.219    24795469.371          36.800
        29.300
 106210462.198 8  82761449.10747  20211168.266    20211176.070          51.200
        43.500
 129039439.445 6 100550214.74243  24555380.766    24555387.340          37.400
        20.600
 106669990.098 8  83119398.95947  20298596.781    20298602.535          51.400
        45.300
 22  1  1  1 47 30.0000000  0 10G19G06G03G30G17G21G08G01G07G14
 120459995.597 7  93865013.75844  22922787.508    22922790.625          42.000
        29.500
 131422895.272 5 102407495.38042  25008951.273    25008961.598          35.700
        15.600
 120872544.813 6  94186434.88444  23001272.453    23001282.309          40.800
        28.800
 122607347.774 6  95538228.08544  23331397.867    23331406.258          41.100
        28.800
 112120784.028 7  87366969.30146  21335895.344    21335900.980          47.800
        41.100
 119518594.049 7  93131421.21745  22743619.594    22743625.055          46.400
        33.300
 130393164.581 6 101605152.76244  24812989.594    24812997.398          36.300
        29.400
 106250782.410 8  82792867.45547  20218840.891    20218849.516          51.100
        43.200
 129147760.103 6 100634620.42143  24575993.680    24575999.316          36.500
        21.300
 106656403.584 8  83108812.06247  20296011.477    20296017.348          50.000
        45.400
 22  1  1  1 48  0.0000000  0 11G19G06G03G30G17G24G21G08G01G07G14
 120372870.580 7  93797124.15945  22906207.867    22906211.629          42.600
        30.500
 131311283.785 6 102320525.34642  24987712.375    24987722.230          38.300
        15.600
 120783866.164 7  94117334.65344  22984398.008    22984406.516          42.300
        29.900
 122702079.841 6  95612045.22644  23349424.594    23349433.453          41.100
        28.500
 112074811.903 8  87331146.88246  21327146.727    21327152.773          49.300
        40.500
 132409589.03315                  25196716.992                          32.500

 119602459.314 7  93196770.76545  22759579.008    22759583.941          45.900
        33.200
 130485302.867 5 101676948.73944  24830521.367    24830532.219          35.700
        29.900
 106291655.029 8  82824716.24947  20226618.719    20226627.051          51.400
        43.600
 129256061.826 6 100719011.34743  24596602.063    24596609.574          38.000
        21.300
 106643327.585 8  83098622.97147  20293522.516    20293528.152          50.700
        45.300
 22  1  1  1 48 30.0000000  0 11G19G06G03G30G17G24G21G08G01G07G14
 120285892.000 7  93729348.67245  22889657.281    22889659.813          43.600
        30.400
 131199757.918 6 102233622.04742  24966490.227    24966499.086          37.600
        16.300
 120695498.630 7  94048476.88244  22967582.648    22967591.332          43.100
        29.700
 122797028.349 6  95686031.05044  23367492.852    23367501.652          41.300
        27.400
 112029058.174 7  87295494.62446  21318440.633    21318445.566          47.800
        41.300
 132339897.211 5 103122072.19652  25183456.484    25183463.996          34.400
        13.900
 119686507.730 7  93262263.04345  22775573.492    22775577.898          46.500
        33.600
 130577465.526 6 101748763.79644  24848061.133    24848069.816          36.800
        28.400
 106333078.000 8  82856993.89547  20234501.406    20234509.680          50.200
        43.600
 129364341.664 6 100803385.24843  24617208.031    24617214.723          39.200
        22.500
 106630763.171 8  83088832.51347  20291131.773    20291137.645          50.700
        45.200
 22  1  1  1 49  0.0000000  0 11G19G06G03G30G17G24G21G08G01G07G14
 120199059.942 7  93661687.35245  22873133.008    22873136.242          43.300
        31.000
 131088318.907 6 102146786.46742  24945283.766    24945292.859          38.100
        16.300
 120607445.038 7  93979863.73844  22950826.148    22950835.242          42.700
        29.600
 122892189.905 6  95760182.87044  23385601.836    23385610.227          41.600
        28.100
 111983522.576 8  87260012.34446  21309775.180    21309780.816          48.400
        40.800
 132270625.816 5                  25170273.359                          34.700

 119770737.103 7  93327896.32045  22791600.938    22791606.105          46.600
        33.500
 130669651.516 5 101820596.97944  24865602.969    24865611.770          35.600
        29.000
 106375048.980 8  82889698.54947  20242487.914    20242496.305          50.300
        43.700
 129472596.619 6 100887739.78543  24637809.836    24637815.180          38.900
        20.900
 106618711.073 8  83079441.25847  20288838.383    20288844.371          50.100
        45.400
 22  1  1  1 49 30.0000000  0 11G19G06G03G30G17G24G21G08G01G07G14
 120112375.254 7  93594140.86445  22856637.297    22856641.000          43.300
        30.600
 130976968.891 6 102060020.20542  24924094.453    24924103.781          36.700
        15.600
 120519708.884 7  93911497.94044  22934129.477    22934139.273          43.000
        29.900
 122987561.775 6  95834498.60444  23403750.648    23403758.395          40.800
        26.800
 111938205.873 8  87224700.63146  21301151.516    21301156.859          48.100
        40.500
 132201777.377 5                  25157171.727                          33.900

 119855145.238 7  93393668.88745  22807663.594    22807668.410          46.700
        33.000
 130761861.063 6 101892448.48045  24883150.609    24883159.352          37.700
        30.400
 106417566.161 8  82922828.82247  20250578.773    20250586.695          50.500
        43.800
 129580824.055 6 100972072.86043  24658402.875    24658409.684          37.300
        20.600
 106607172.761 8  83070450.36447  20286642.617    20286648.371          51.200
        45.100
 22  1  1  1 50  0.0000000  0 11G19G06G03G30G17G24G21G08G01G07G14
 120025838.998 7  93526710.03445  22840170.305    22840173.363          43.200
        30.500
 130865709.359 5 101973324.38342  24902922.914    24902931.363          35.200
        16.300
 120432293.239 7  93843381.89344  22917495.906    22917505.117          43.500
        29.300
 123083140.729 6  95908975.65344  23421938.805    23421947.195          39.900
        26.900
 111893107.853 8  87189559.31446  21292569.438    21292575.191          48.600
        40.700
 132133353.975 5                  25144151.203                          30.700

 119939730.259 7  93459579.29645  22823760.008    22823764.648          46.600
        32.800
 130854093.103 6 101964317.56045  24900702.648    24900710.980          38.000
        30.400
 106460627.254 8  82956382.92247  20258773.164    20258781.555          50.000
        43.700
 129689021.068 5 101056382.22643  24678991.648    24678999.336          34.800
        18.300
 106596149.062 8  83061860.46447  20284544.891    20284550.703          52.300
        45.200
 22  1  1  1 50 30.0000000  0 11G19G06G03G30G17G24G21G08G01G07G14
 119939451.720 7  93459395.29045  22823731.500    22823734.500          43.400
        31.400
 130754542.09815 101886700.54252  24881767.617    24881777.473          33.300
        14.800
 120345201.068 7  93775517.91245  22900923.063    22900931.043          43.300
        30.200
 123178923.484 6  95983611.56144  23440165.016    23440173.641          41.100
        26.100
 111848228.643 8  87154588.50746  21284029.531    21284034.641          49.300
        41.100
 132065358.23514                  25131212.523                          29.600

 120024489.368 7  93525625.34845  22839889.359    22839893.473          45.400
        33.000
 130946347.394 6 102036203.93444  24918255.961    24918265.465          36.400
        29.300
 106504230.015 8  82990359.09947  20267070.398    20267078.789          51.600
        43.900
 129797184.71715 101140665.55252  24699574.227    24699582.500          33.200
        16.300
 106585640.853 8  83053672.24747  20282545.273    20282551.613          51.900
        45.200
 22  1  1  1 51  0.0000000  0 11G19G06G03G30G17G24G21G08G01G07G14
 119853214.191 7  93392197.23445  22807320.789    22807324.141          43.900
        31.400
 130643468.93615 101800150.03552  24860629.469    24860641.727          31.800
        14.800
 120258435.738 7  93707908.60445  22884412.422    22884421.164          43.700
        31.800
 123274907.247 6  96058404.09044  23458430.531    23458438.980          41.300
        28.600
 111803568.550 8  87119788.44146  21275531.242    21275536.527          48.800
        41.300
 131997791.23714                  25118355.203                          25.300

 120109421.300 7  93591806.07245  22856050.992    22856055.926          45.700
        32.300
 131038623.265 6 102108107.11544  24935817.211    24935825.074          36.800
        28.100
 106548372.517 8  83024755.85147  20275470.297    20275479.098          51.300
        43.400
 129905312.69315 101224921.11052  24720152.219    24720158.207          33.500
        16.900
 106575649.355 8  83045886.65947  20280643.930    20280650.211          51.700
        45.300
 22  1  1  1 51 30.0000000  0 11G19G06G03G30G17G24G21G08G01G07G14
 119767126.952 7  93325116.28345  22790938.664    22790941.957          43.600
        31.600
 130532491.33115                  24839512.586                          31.800

 120172000.236 7  93640556.31045  22867964.086    22867972.242          43.400
        30.700
 123371088.725 6  96133350.68044  23476732.867    23476741.961          39.600
        26.700
 111759127.434 8  87085159.00446  21267074.250    21267079.652          49.500
        41.400
 131930655.10414 102803200.83852  25105579.375    25105590.637          27.300
        14.800
 120194523.704 7  93658119.63445  22872245.281    22872250.273          45.800
        32.900
 131130920.057 6 102180026.60244  24953380.016    24953389.109          36.700
        28.900
 106593052.499 8  83059571.42247  20283972.805    20283980.961          51.300
        44.100
 130013401.990 5 101309146.47742  24740719.078    24740727.117          32.300
        15.600
 106566175.404 8  83038504.34947  20278841.016    20278847.180          51.900
        45.300
 22  1  1  1 52  0.0000000  0 11G19G06G03G30G17G24G21G08G01G07G14
 119681190.908 7  93258153.15345  22774586.180    22774588.945          44.900
        31.400
 130421611.51715                  24818408.984                          30.100

 120085898.171 7  93573463.85345  22851579.773    22851587.813          43.900
        31.100
 123467465.335 6  96208449.31244  23495072.492    23495081.820          40.500
        27.700
 111714905.907 8  87050700.67646  21258659.227    21258664.102          50.200
        41.400
 131863953.32515 102751225.63152  25092884.898    25092895.984          30.800
        15.600
 120279794.610 7  93724564.48845  22888471.648    22888476.758          45.100
        32.700
 131223238.147 6 102251962.69044  24970948.664    24970957.055          37.100
        28.100
 106638268.099 8  83094804.36647  20292577.117    20292585.977          51.600
        43.700
 130121450.09615 101393339.77352  24761280.133    24761287.645          32.500
        14.800
 106557220.363 8  83031526.39547  20277137.266    20277143.430          51.500
        45.600
 22  1  1  1 52 30.0000000  0 11G19G06G03G30G17G24G21G08G01G07G14
 119595407.249 7  93191308.76345  22758262.000    22758264.883          44.000
        32.100
 130310831.248 5 101540952.11053  24797332.289    24797342.965          35.500
        19.300
 120000132.565 7  93506633.55845  22835257.984    22835267.547          43.900
        30.900
 123564033.860 6  96283697.47644  23513449.258    23513458.234          40.600
        26.700
 111670904.264 8  87016413.68646  21250285.852    21250291.313          50.500
        41.100
 131797687.490 5 102699590.00442  25080275.742    25080284.719          34.300
        16.900
 120365231.898 7  93791139.00145  22904729.867    22904734.332          44.600
        32.600
 131315576.655 6 102323914.69144  24988518.930    24988528.141          36.500
        28.800
 106684017.186 8  83130453.00147  20301282.742    20301291.016          52.100
        43.700
 130229454.282 5 101477498.82642  24781834.422    24781840.527          31.800
        14.800
 106548785.206 8  83024953.53947  20275532.211    20275537.613          51.700
        45.600
 22  1  1  1 53  0.0000000  0 11G19G06G03G30G17G24G21G08G01G07G14
 119509776.683 7  93124583.66845  22741967.102    22741970.277          44.600
        31.200
 130200152.250 6 101454708.74943  24776270.820    24776280.793          36.100
        20.400
 119914706.633 7  93440067.95345  22819002.094    22819010.953          43.500
        31.100
 123660791.280 6  96359092.86644  23531861.922    23531870.547          40.500
        26.700
 111627122.690 8  86982298.18346  21241954.484    21241959.887          50.200
        41.400
 131731859.671 6 102648295.69542  25067750.594    25067757.754          36.100
        17.800
 120450834.246 7  93857842.12445  22921019.766    22921024.523          45.500
        31.900
 131407935.258 5 102395882.37444  25006093.938    25006103.676          35.100
        28.100
 106730297.572 8  83166515.64247  20310089.508    20310097.605          52.200
        43.400
 130337411.73214 101561621.39052  24802377.352    24802383.867          29.400
        13.900
 106540870.910 8  83018786.55147  20274025.945    20274031.582          51.800
        45.500
 22  1  1  1 53 30.0000000  0 11G19G06G03G30G17G24G21G08G01G07G14
 119424299.275 7  93057977.91245  22725700.625    22725703.918          43.500
        30.800
 130089575.999 6 101368545.44243  24755228.930    24755238.727          38.300
        21.500
 119829623.333 7  93373769.31245  22802811.281    22802820.082          43.900
        30.000
 123757734.428 6  96434632.93344  23550310.047    23550318.496          39.400
        26.500
 111583561.270 8  86948354.22946  21233665.141    21233670.484          50.800
        41.300
 131666471.941 6 102597344.25342  25055307.773    25055313.703          36.600
        17.800
 120536598.647 7  93924671.52645  22937340.258    22937344.840          44.500
        32.700
 131500313.212 5 102467865.16944  25023672.156    25023682.949          34.500
        28.600
 106777106.930 8  83202990.46647  20318996.891    20319004.930          51.700
        43.700
 130445320.38414                  24822908.422                          27.600

 106533478.228 8  83013026.01347  20272619.016    20272624.828          52.000
        45.400
 22  1  1  1 54  0.0000000  0 10G19G06G03G30G17G24G21G08G01G14
 119338976.129 7  92991492.36645  22709464.266    22709467.617          43.900
        32.100
 129979104.410 6 101282463.73343  24734206.500    24734216.590          38.700
        22.900
 119744885.958 7  93307740.23445  22786686.719    22786695.754          44.700
        30.800
 123854860.251 6  96510315.35344  23568791.195    23568800.934          40.800
        25.400
 111540220.335 8  86914582.07446  21225417.922    21225422.680          50.800
        40.600
 131601526.388 6 102546737.40542  25042949.398    25042955.270          36.100
        16.900
 120622523.728 7  93991626.13545  22953691.578    22953695.574          43.900
        32.300
 131592710.412 5 102539862.89644  25041256.211    25041265.070          35.500
        29.300
 106824443.166 8  83239875.84347  20328004.828    20328013.277          51.900
        43.200
 106526608.236 8  83007672.77147  20271311.414    20271317.344          50.800
        45.300
 22  1  1  1 54 30.0000000  0 10G19G06G03G30G17G24G21G08G01G14
 119253808.120 7  92925127.69245  22693257.719    22693260.660          43.700
        32.000
 129868739.107 6 101196464.84943  24713205.891    24713215.102          38.300
        23.800
 119660497.515 7  93241983.05245  22770627.820    22770636.563          44.000
        31.200
 123952165.660 6  96586137.70644  23587308.289    23587317.383          40.300
        27.500
 111497099.814 8  86880981.67346  21217212.016    21217217.066          49.100
        41.300
 131537025.084 5 102496476.71042  25030673.531    25030681.336          33.900
        13.900
 120708606.940 7  94058703.95745  22970071.953    22970076.594          44.700
        31.900
 131685126.044 6 102611875.00944  25058842.273    25058850.664          36.300
        28.600
 106872303.952 8  83277169.96747  20337112.672    20337120.828          51.000
        43.400
 106520261.685 8  83002727.39847  20270104.086    20270109.898          51.900
        45.400
 22  1  1  1 55  0.0000000  0 10G19G06G03G30G17G24G21G08G01G14
 119168795.846 7  92858884.39045  22677079.836    22677083.891          44.100
        31.900
 129758481.956 6 101110550.19543  24692225.336    24692233.727          39.200
        23.500
 119576461.284 7  93176500.33945  22754635.867    22754644.668          44.100
        31.000
 124049647.722 6  96662097.73544  23605858.578    23605867.848          40.500
        26.800
 111454200.222 8  86847553.42146  21209048.313    21209053.363          49.800
        41.600
 131472970.60115                  25018484.875                          32.600

 120794846.957 7  94125903.97345  22986482.992    22986487.633          44.200
        32.000
 131777559.268 6 102683900.82144  25076432.023    25076440.707          36.900
        26.900
 106920687.238 8  83314871.22547  20346319.727    20346327.941          51.300
        43.300
 106514439.728 8  82998190.80647  20268996.313    20269002.359          51.000
        45.500
 22  1  1  1 55 30.0000000  0 10G19G06G03G30G17G24G21G08G01G14
 119083939.969 7  92792762.94745  22660932.906    22660935.555          44.600
        31.700
 129648334.322 6 101024720.87743  24671263.414    24671273.563          36.500
        22.800
 119492780.124 7  93111294.29245  22738712.320    22738721.004          43.800
        31.700
 124147303.176 6  96738192.87044  23624442.563    23624451.480          40.900
        26.700
 111411521.349 8  86814297.15746  21200927.141    21200931.957          50.200
        41.800
 131409364.03214                  25006381.156                          29.900

 120881241.229 7  94193224.17745  23002923.563    23002927.910          44.200
        32.200
 131870010.179 6 102755940.42844  25094024.648    25094033.215          36.200
        25.900
 106969590.539 8  83352977.69547  20355625.336    20355633.551          51.100
        43.400
 106509142.934 8  82994063.43447  20267988.305    20267994.117          51.100
        45.600
 22  1  1  1 56  0.0000000  0 10G19G06G03G30G17G24G21G08G01G14
 118999241.183 7  92726763.90045  22644815.133    22644818.250          44.600
        32.400
 129538298.092 5 100938978.38143  24650324.023    24650333.410          34.800
        19.300
 119409457.141 7  93046367.33645  22722856.117    22722865.445          44.100
        31.500
 124245128.905 6  96814420.68244  23643057.906    23643067.059          41.500
        26.600
 111369063.571 8  86781213.17746  21192847.586    21192852.578          49.500
        41.800
 131346207.11314                  24994364.117                          28.300

 120967787.601 7  94260662.90845  23019392.016    23019397.301          44.800
        31.200
 131962478.272 6 102827993.46244  25111621.180    25111629.395          36.300
        26.600
 107019011.590 8  83391487.60847  20365030.211    20365038.777          50.100
        43.700
 106504372.192 8  82990345.96647  20267080.719    20267086.941          51.600
        45.600
 22  1  1  1 56 30.0000000  0 10G19G06G03G30G17G24G21G08G01G14
 118914700.460 7  92660888.02645  22628727.242    22628731.180          44.100
        31.900
 129428375.091 5 100853324.20942  24629406.508    24629416.246          33.300
        17.400
 119326495.577 7  92981721.99945  22707069.273    22707078.074          43.700
        32.300
 124343122.034 6  96890778.92644  23661704.234    23661714.793          40.200
        25.100
 111326827.226 8  86748301.74646  21184810.125    21184815.117          50.000
        41.500
 131283503.23615                  24982431.695                          30.100

 121054484.196 7  94328218.69245  23035890.539    23035895.238          44.000
        31.400
 132054963.034 5 102900059.46444  25129219.398    25129229.078          34.500
        25.800
 107068948.296 8  83430399.32547  20374532.664    20374541.055          51.900
        43.300
 106500128.493 8  82987039.17647  20266273.320    20266279.484          51.000
        45.500
 22  1  1  1 57  0.0000000  0 10G19G06G03G30G17G24G21G08G01G14
 118830318.127 7  92595135.57845  22612670.227    22612673.578          44.600
        32.700
 129318566.63015 100767759.21152  24608510.039    24608520.188          30.700
        15.600
 119243898.353 7  92917360.58745  22691350.961    22691359.820          44.100
        31.800
 124441279.213 6  96967265.02044  23680383.219    23680392.723          40.900
        24.400
 111284812.417 8  86715562.93246  21176815.352    21176820.109          49.100
        41.400
 131221253.63415 102250391.07952  24970585.945    24970591.699          33.900
        17.400
 121141328.939 7  94395889.91945  23052416.141    23052420.840          44.800
        31.000
 132147463.700 5 102972137.85844  25146822.453    25146831.430          34.700
        27.800
 107119398.110 8  83469710.86747  20384133.008    20384141.223          50.500
        42.700
 106496412.425 8  82984143.53747  20265565.984    20265571.855          51.500
        45.500
 22  1  1  1 57 30.0000000  0 10G19G06G03G30G17G24G21G08G01G14
 118746095.461 7  92529507.54145  22596642.484    22596645.719          44.000
        32.700
 129208874.883 5 100682285.13442  24587637.586    24587646.797          34.200
        14.800
 119161668.755 7  92853285.63645  22675703.164    22675712.316          44.600
        32.400
 124539597.731 6  97043876.80944  23699092.906    23699102.762          40.400
        26.800
 111243019.295 8  86682996.86146  21168862.156    21168867.441          48.700
        41.800
 131159460.457 5 102202240.58343  24958826.461    24958832.742          35.100
        19.000
 121228320.162 7  94463675.27945  23068970.086    23068974.434          45.200
        31.100
 132239980.228 5 103044228.56744  25164427.164    25164437.078          34.500
        28.100
 107170358.971 8  83509420.63747  20393830.555    20393838.652          50.400
        42.900
 106493225.052 8  82981659.86447  20264959.539    20264964.883          51.700
        45.900
 22  1  1  1 58  0.0000000  0 10G19G06G03G30G17G24G21G08G01G14
 118662033.354 7  92464004.61745  22580647.016    22580650.133          44.800
        32.300
 129099301.833 6 100596903.51243  24566786.203    24566795.883          37.700
        18.600
 119079810.257 7  92789499.82845  22660126.031    22660135.008          44.300
        32.300
 124638074.826 6  97120612.18144  23717833.023    23717842.645          40.200
        24.100
 111201448.720 8  86650604.21147  21160951.852    21160956.375          49.800
        42.000
 131098126.268 6 102154447.74843  24947153.242    24947161.398          36.200
        19.900
 121315456.117 7  94531573.42945  23085551.945    23085556.117          45.300
        32.200
 132332512.500 6 103116331.59544  25182036.164    25182045.961          37.700
        29.500
 107221829.123 8  83549527.24947  20403624.922    20403633.254          50.300
        43.200
 106490567.600 8  82979589.11347  20264453.734    20264459.430          51.200
        46.000
 22  1  1  1 58 30.0000000  0 10G19G06G03G30G17G24G21G08G01G14
 118578132.141 7  92398627.06045  22564679.891    22564683.535          44.900
        31.600
 128989848.802 6 100511615.44043  24545958.891    24545966.988          38.300
        22.000
 118998325.366 7  92726005.12945  22644620.133    22644628.992          44.400
        32.400
 124736706.964 6  97197468.35944  23736601.430    23736611.520          39.500
        25.200
 111160100.238 8  86618384.62047  21153083.250    21153088.125          48.900
        42.100
 131037252.338 5 102107013.52143  24935569.992    24935577.563          35.700
        21.100
 121402734.394 7  94599582.47445  23102160.000    23102164.934          44.300
        31.100
 132425059.612 6 103188446.24144  25199647.664    25199656.758          37.100
        27.600
 107273805.644 8  83590028.43147  20413515.508    20413524.016          50.500
        43.000
 106488440.307 8  82977931.47847  20264048.672    20264054.484          51.100
        45.700
 22  1  1  1 59  0.0000000  0 10G19G06G03G30G17G24G21G08G01G14
 118494392.723 7  92333375.57845  22548744.758    22548748.871          43.100
        31.600
 128880517.377 6 100426422.23143  24525152.570    24525163.188          37.400
        22.500
 118917217.287 7  92662804.08245  22629185.492    22629195.055          43.200
        32.600
 124835491.111 6  97274442.99444  23755400.211    23755409.070          39.700
        24.600
 111118974.165 8  86586338.32946  21145256.984    21145262.270          49.900
        41.700
 130976840.757 5 102059939.59043  24924074.766    24924081.926          35.600
        20.100
 121490153.218 7  94667701.02545  23118795.734    23118800.375          43.900
        30.900
 132517621.013 5 103260571.95344  25217260.516    25217270.781          34.900
        28.400
 107326286.276 8  83630922.42747  20423502.289    20423510.797          50.700
        42.600
 106486843.979 8  82976687.58447  20263744.828    20263750.641          51.600
        45.700
 22  1  1  1 59 30.0000000  0 10G19G06G03G30G17G24G21G08G01G14
 118410815.815 7  92268250.73045  22532841.133    22532844.602          44.800
        32.700
 128771309.410 6 100341325.21144  24504370.320    24504380.703          39.400
        24.700
 118836489.121 7  92599899.06945  22613823.430    22613833.051          44.300
        32.600
 124934424.328 6  97351533.76344  23774226.695    23774235.438          39.300
        25.800
 111078070.679 8  86554465.47947  21137473.461    21137478.629          50.100
        42.000
 130916893.570 5 102013227.52342  24912667.219    24912673.031          34.800
        16.900
 121577710.722 7  94735927.65045  23135457.195    23135461.895          43.500
        30.800
 132610196.814 5 103332708.92244  25234878.000    25234886.508          35.000
        27.500
 107379268.804 8  83672207.51647  20433584.883    20433592.980          50.900
        43.000
 106485779.482 8  82975858.10447  20263542.367    20263548.063          51.300
        45.800
 22  1  1  2  0  0.0000000  0 10G19G06G03G30G17G24G21G08G01G14
 118327402.614 7  92203253.44245  22516968.109    22516971.695          44.800
        31.900
 128662226.654 6 100256325.72144  24483613.445    24483622.539          40.000
        24.700
 118756143.958 7  92537292.48545  22598534.375    22598543.352          44.700
        32.400
 125033503.654 6  97428738.39544  23793080.250    23793089.461          39.400
        25.700
 111037390.250 8  86522766.44346  21129732.398    21129737.625          50.000
        41.900
 130857412.647 5 101966878.71942  24901345.117    24901354.797          31.500
        17.400
 121665404.715 7  94804260.62345  23152144.664    23152149.012          43.100
        30.700
 132702786.043 5 103404856.28744  25252497.039    25252505.781          33.700
        27.300
 107432750.931 8  83713881.89947  20443761.680    20443770.598          51.400
        43.200
 106485247.600 8  82975443.64047  20263441.570    20263447.383          51.200
        45.700
 22  1  1  2  0 30.0000000  0  9G19G06G03G30G17G21G08G01G14
 118244153.544 7  92138384.04845  22501126.836    22501129.484          44.900
        31.800
 128553270.665 6 100171424.97243  24462877.469    24462889.492          37.400
        22.600
 118676184.763 7  92474986.64645  22583319.188    22583327.520          44.500
        31.700
 125132725.914 6  97506054.40944  23811961.250    23811971.340          40.300
        25.300
 110996933.188 8  86491241.46647  21122033.289    21122038.574          48.800
        42.100
 121753233.102 7  94872698.32844  23168857.836    23168862.770          42.600
        29.900
 132795388.164 5 103477013.76344  25270119.336    25270127.492          33.800
        25.900
 107486730.245 8  83755943.69448  20454033.602    20454041.934          50.700
        53.700
 106485248.979 8  82975444.71347  20263441.828    20263447.172          51.200
        45.500
 22  1  1  2  1  0.0000000  0  9G19G06G03G30G17G21G08G01G14
 118161068.729 7  92073642.65045  22485316.570    22485319.629          44.500
        33.100
 128444442.856 6 100086624.16043  24442169.625    24442179.539          37.500
        20.600
 118596614.264 7  92412983.67845  22568176.977    22568185.602          44.200
        32.800
 125232087.773 6  97583479.18143  23830870.109    23830879.203          39.800
        22.500
 110956699.098 8  86459890.22446  21114377.227    21114382.219          50.000
        41.700
 121841194.383 7  94941239.57445  23185595.984    23185601.211          42.800
        30.100
 132888002.620 5 103549180.92644  25287741.422    25287750.926          34.300
        25.700
 107541204.065 8  83798390.82448  20464399.500    20464408.066          50.800
        53.700
 106485783.968 8  82975861.57847  20263543.375    20263549.480          50.700
        45.600
 22  1  1  2  1 30.0000000  0  9G19G06G03G30G17G21G08G01G14
 118078149.757 7  92009030.48945  22469537.250    22469540.543          43.600
        32.900
 128335745.474 5 100001924.93343  24421485.141    24421494.879          35.700
        19.600
 118517436.077 7  92351286.44145  22553109.867    22553118.434          43.800
        32.600
 125331586.715 6  97661010.82143  23849803.820    23849812.504          38.800
        22.900
 110916688.971 8  86428713.50246  21106763.430    21106768.715          49.800
        41.900
 121929286.696 7  95009882.93144  23202359.391    23202364.910          42.300
        29.800
 132980629.65715 103621357.77353  25305366.945    25305378.383          32.400
        22.600
 107596170.575 8  83841221.87148  20474859.734    20474868.184          51.000
        53.800
 106486853.823 8  82976695.23447  20263747.180    20263752.758          51.700
        45.700
 22  1  1  2  2  0.0000000  0 10G19G06G03G30G17G24G21G08G01G14
 117995397.563 7  91944548.26645  22453790.234    22453792.883          44.500
        33.100
 128227179.922 6  99917328.46143  24400825.461    24400835.316          36.700
        19.300
 118438652.944 7  92289897.00245  22538117.953    22538126.402          44.000
        32.900
 125431219.575 6  97738646.78343  23868762.938    23868772.324          40.000
        23.500
 110876902.582 8  86397711.13246  21099192.508    21099197.266          51.000
        41.600
 130624152.95215                  24856967.563                          32.300

 122017507.914 7  95078626.74545  23219147.680    23219152.438          42.500
        30.400
 133073268.63915 103693543.93154  25322998.242    25323006.809          33.600
        24.300
 107651627.232 8  83884434.85348  20485412.844    20485421.117          50.800
        53.900
 106488459.052 8  82977946.05247  20264052.242    20264058.289          51.500
        45.800
 22  1  1  2  2 30.0000000  0 10G19G06G03G30G17G24G21G08G01G14
 117912813.001 7  91880196.67545  22438074.688    22438078.156          45.000
        33.400
 128118747.970 6  99832836.07043  24380191.969    24380202.117          37.500
        22.500
 118360267.868 7  92228817.76045  22523201.422    22523210.340          45.100
        33.100
 125530983.164 6  97816384.62444  23887748.141    23887756.824          39.900
        25.700
 110837340.193 8  86366883.29747  21091663.906    21091668.840          49.900
        42.000
 130567031.32515                  24846096.711                          33.700

 122105855.880 7  95147469.30244  23235959.883    23235964.758          42.900
        29.100
 133165918.724 5 103765738.76343  25340628.055    25340636.445          34.100
        23.000
 107707571.570 8  83928027.85248  20496058.711    20496066.750          50.900
        53.900
 106490600.203 8  82979614.47547  20264460.148    20264465.785          51.400
        45.600
 22  1  1  2  3  0.0000000  0 10G19G06G03G30G17G24G21G08G01G14
 117830396.448 7  91815975.99845  22422390.453    22422394.215          45.100
        33.000
 128010451.700 6  99748449.47543  24359583.844    24359593.699          37.800
        21.700
 118282284.330 7  92168051.40945  22508361.789    22508371.059          44.200
        32.700
 125630874.972 6  97894222.37244  23906756.641    23906766.086          39.400
        25.300
 110798002.606 8  86336230.62946  21084178.305    21084183.238          50.800
        41.400
 130510388.17115 101696506.94752  24835316.328    24835325.891          35.500
        17.800
 122194329.062 7  95216409.44244  23252795.570    23252800.211          43.300
        29.400
 133258580.306 5 103837942.59044  25358261.258    25358270.703          35.200
        24.700
 107764001.764 8  83971999.42948  20506797.125    20506805.457          51.000
        53.800
 106493278.413 8  82981701.38947  20264969.805    20264975.500          51.900
        45.500
 22  1  1  2  3 30.0000000  0 10G19G06G03G30G17G24G21G08G01G14
 117748148.801 7  91751886.95145  22406739.820    22406743.348          45.000
        33.200
 127902292.523 6  99664169.64443  24339001.586    24339011.734          37.300
        22.200
 118204705.050 7  92107600.05245  22493599.461    22493607.559          44.700
        33.400
 125730891.709 6  97972157.44844  23925789.391    23925798.484          38.800
        24.700
 110758890.072 8  86305753.33246  21076735.094    21076740.613          48.100
        41.700
 130454224.619 5 101652743.12843  24824629.016    24824637.875          35.200
        19.000
 122282925.909 7  95285445.94344  23269655.063    23269659.820          43.700
        29.400
 133351252.582 5 103910154.70944  25375896.289    25375905.910          34.800
        24.700
 107820915.059 8  84016347.45048  20517627.297    20517635.512          50.700
        53.500
 106496494.016 8  82984207.05247  20265581.336    20265587.559          50.600
        45.400
 22  1  1  2  4  0.0000000  0 10G19G06G03G30G17G24G21G08G01G14
 117666070.548 7  91687929.88145  22391121.594    22391123.598          44.200
        33.300
 127794271.578 6  99579997.50843  24318446.461    24318456.375          36.800
        20.600
 118127532.451 7  92047465.59145  22478913.352    22478921.859          45.200
        32.100
 125831029.804 6  98050187.07743  23944845.344    23944854.730          40.600
        22.800
 110720001.805 8  86275450.78847  21069335.383    21069340.668          51.000
        42.200
 130398541.907 6 101609354.02243  24814034.469    24814042.273          37.100
        20.100
 122371643.832 7  95354576.78744  23286538.508    23286541.742          43.300
        29.000
 133443934.848 5 103982374.63644  25393533.305    25393541.871          35.400
        24.500
 107878308.607 8  84061069.69848  20528548.852    20528557.359          50.200
        53.700
 106500247.138 8  82987131.54947  20266295.891    20266301.410          51.500
        45.600
 22  1  1  2  4 30.0000000  0 10G19G06G03G30G17G24G21G08G01G14
 117584162.619 7  91624105.53545  22375534.500    22375537.617          45.400
        32.900
 127686390.907 6  99495934.66043  24297916.961    24297926.582          37.100
        21.100
 118050769.890 7  91987650.64745  22464306.547    22464314.879          44.200
        33.600
 125931286.662 6  98128309.30943  23963923.281    23963931.848          39.600
        22.800
 110681338.592 8  86245323.61346  21061978.039    21061982.914          50.600
        41.800
 130343342.168 5 101566341.25843  24803529.313    24803538.172          35.900
        19.900
 122460481.350 7  95423800.82244  23303443.023    23303447.371          43.700
        27.900
 133536627.037 5 104054602.28944  25411172.492    25411181.117          34.300
        25.300
 107936180.294 8  84106164.52248  20539561.344    20539569.910          50.600
        53.700
 106504538.646 8  82990475.58347  20267112.461    20267117.863          51.900
        45.700
 22  1  1  2  5  0.0000000  0 10G19G06G03G30G17G24G21G08G01G14
 117502425.988 7  91560414.66745  22359980.242    22359983.477          44.400
        33.600
 127578652.180 6  99411982.45743  24277415.227    24277425.141          38.100
        20.100
 117974420.261 7  91928157.44945  22449777.094    22449785.602          45.600
        33.000
 126031659.117 6  98206521.58443  23983022.742    23983031.777          38.200
        22.500
 110642900.839 8  86215372.11647  21054663.688    21054668.387          49.200
        42.500
 130288627.067 5 101523706.14743  24793118.508    24793125.492          34.900
        20.600
 122549436.438 7  95493116.48444  23320370.359    23320375.293          44.300
        28.600
 133629328.245 5 104126836.86844  25428813.141    25428822.117          34.900
        27.600
 107994527.684 8  84151630.01948  20550664.336    20550672.844          51.000
        53.400
 106509369.103 8  82994239.56247  20268031.547    20268037.477          51.500
        45.500
 22  1  1  2  5 30.0000000  0 10G19G06G03G30G17G24G21G08G01G14
 117420861.552 7  91496857.97145  22344459.195    22344462.488          44.300
        33.700
 127471057.040 6  99328142.16343  24256940.203    24256949.883          37.800
        20.600
 117898486.660 7  91868988.44345  22435327.422    22435336.281          45.800
        33.300
 126132144.342 6  98284821.72843  24002144.969    24002153.770          38.800
        23.000
 110604689.056 8  86185596.70947  21047391.867    21047396.918          48.300
        42.000
 130234398.629 5 101481450.23943  24782799.734    24782807.305          33.800
        18.300
 122638506.822 7  95562521.97544  23337320.289    23337324.695          44.700
        29.900
 133722038.525 5 104199078.56644  25446455.109    25446464.027          34.600
        26.400
 108053348.461 8  84197464.39048  20561857.313    20561865.938          50.300
        53.300
 106514739.169 8  82998424.02347  20269053.508    20269059.145          51.100
        45.700
 22  1  1  2  6  0.0000000  0 10G19G06G03G30G17G24G21G08G01G14
 117339469.861 7  91433435.88445  22328970.469    22328974.348          44.600
        33.200
 127363607.076 6  99244414.95243  24236491.945    24236502.797          38.200
        20.900
 117822971.789 7  91810145.72445  22420957.305    22420966.516          45.700
        33.600
 126232739.025 6  98363207.17043  24021287.008    24021296.629          37.600
        22.300
 110566702.605 8  86155996.87146  21040163.359    21040168.410          48.300
        41.700
 130180658.81215                  24772572.906                          30.500

 122727691.022 7  95632016.15844  23354291.523    23354295.578          43.900
        29.600
 133814756.843 5 104271326.42044  25464097.594    25464107.859          32.800
        25.100
 108112639.992 8  84243665.58548  20573140.227    20573148.324          50.200
        53.000
 106520649.161 8  83003029.20947  20270178.109    20270183.688          51.500
        45.500
 22  1  1  2  6 30.0000000  0 10G19G06G03G30G17G24G21G08G01G14
 117258251.799 7  91370149.08845  22313515.070    22313518.480          45.200
        33.800
 127256304.119 6  99160802.30343  24216073.742    24216083.070          39.000
        22.200
 117747878.840 7  91751631.77345  22406667.875    22406676.207          46.000
        33.600
 126333440.467 6  98441675.78143  24040451.391    24040459.313          38.600
        22.500
 110528942.436 8  86126573.36947  21032977.906    21032982.781          50.600
        42.500
 130127408.12414 101398081.11652  24762442.055    24762446.930          28.600
        14.800
 122816987.294 7  95701597.66744  23371283.609    23371288.250          43.900
        28.900
 133907483.699 5 104343580.99843  25481744.531    25481752.805          33.200
        23.000
 108172400.088 8  84290231.89048  20584512.484    20584520.699          51.100
        53.400
 106527099.801 8  83008055.68147  20271405.523    20271411.629          51.600
        45.400
 22  1  1  2  7  0.0000000  0  9G19G06G03G30G17G21G08G01G14
 117177207.827 7  91306997.95645  22298093.594    22298096.711          45.100
        33.900
 127149149.569 6  99077305.27043  24195683.531    24195692.566          39.900
        22.600
 117673210.364 7  91693448.58345  22392458.594    22392467.629          46.000
        34.400
 126434245.319 6  98520224.98343  24059633.695    24059642.613          38.600
        23.500
 110491408.504 8  86097326.14947  21025835.445    21025840.379          50.200
        42.200
 122906393.365 7  95771264.71844  23388296.828    23388301.996          42.900
        28.700
 134000217.775 5 104415841.23144  25499391.719    25499400.520          31.500
        26.100
 108232625.947 8  84337161.13648  20595972.797    20595981.188          50.600
        53.000
 106534091.316 8  83013503.60347  20272735.852    20272741.898          51.700
        45.400
 22  1  1  2  7 30.0000000  0 10G19G06G03G30G17G24G21G08G01G14
 117096339.126 7  91243983.39045  22282704.906    22282707.379          44.900
        34.000
 127042145.189 6  98993925.24743  24175321.234    24175330.855          38.900
        23.000
 117598969.513 7  91635598.59545  22378331.242    22378339.516          46.200
        33.800
 126535150.784 6  98598852.57843  24078835.547    24078843.938          38.300
        21.300
 110454101.273 8  86068255.57547  21018735.922    21018741.324          48.100
        42.200
 130022392.96915                  24742453.336                          32.400

 122995908.079 7  95841016.45344  23405331.219    23405335.684          42.800
        28.500
 134092959.102 5 104488107.06043  25517037.250    25517047.984          32.400
        22.300
 108293315.377 8  84384451.59948  20607521.477    20607530.395          49.900
        53.000
 106541624.371 8  83019373.51047  20274169.773    20274175.410          51.600
        45.500
 22  1  1  2  8  0.0000000  0 10G19G06G03G30G17G24G21G08G01G14
 117015646.409 7  91181105.95945  22267349.383    22267352.207          44.900
        34.100
 126935292.639 6  98910663.57743  24154988.031    24154996.832          39.000
        22.600
 117525159.161 7  91578084.08045  22364285.617    22364293.949          45.100
        34.500
 126636153.837 6  98677556.23043  24098056.023    24098063.535          38.400
        21.700
 110417020.888 8  86039361.77247  21011679.609    21011685.305          50.900
        42.400
 129970622.60815 101275902.74252  24732603.063    24732609.813          35.700
        16.300
 123085529.484 7  95910851.32344  23422385.000    23422390.285          42.500
        28.100
 134185707.641 5 104560378.57344  25534689.852    25534697.598          35.200
        24.500
 108354465.880 8  84432101.34148  20619158.813    20619167.086          50.700
        53.000
 106549699.392 8  83025665.72947  20275706.328    20275712.199          51.900
        45.400
 22  1  1  2  8 30.0000000  0 10G19G06G03G30G17G24G21G08G01G14
 116935130.797 7  91118366.54945  22252027.633    22252031.219          44.900
        34.100
 126828593.786 6  98827521.69443  24134682.844    24134693.051          38.100
        22.200
 117451782.396 7  91520907.41745  22350322.008    22350331.043          45.500
        34.500
 126737251.613 6  98756333.71543  24117292.914    24117302.066          38.100
        22.300
 110380167.679 8  86010644.98847  21004666.852    21004671.902          48.200
        42.100
 129919349.275 6 101235949.52942  24722845.875    24722851.805          36.900
        16.300
 123175255.531 7  95980767.72344  23439460.148    23439464.203          42.400
        28.300
 134278462.670 5 104632655.10243  25552339.156    25552347.605          34.000
        22.900
 108416075.177 8  84480108.58648  20630882.375    20630891.117          50.500
        53.000
 106558317.032 8  83032380.76947  20277346.422    20277352.000          50.900
        45.700
 22  1  1  2  9  0.0000000  0 10G19G06G03G30G17G24G21G08G01G14
 116854793.032 7  91055765.69945  22236740.211    22236743.328          46.000
        34.200
 126722049.983 6  98744500.61843  24114408.328    24114418.535          37.700
        22.900
 117378841.847 7  91464070.65145  22336442.516    22336450.496          45.700
        34.300
 126838441.043 6  98835182.56343  24136550.172    24136558.270          37.900
        22.300
 110343541.839 8  85982105.37147  20997697.391    20997702.207          49.300
        42.600
 129868574.382 6 101196384.59942  24713183.242    24713190.344          36.300
        15.600
 123265084.262 7  96050764.12844  23456553.164    23456558.332          43.400
        28.700
 134371223.578 5 104704936.26643  25569991.563    25570000.480          34.800
        22.600
 108478140.624 8  84528471.27148  20642692.930    20642701.320          50.000
        53.000
 106567477.511 8  83039518.79847  20279088.867    20279095.031          51.700
        45.400
 22  1  1  2  9 30.0000000  0 10G19G06G03G30G17G24G21G08G01G14
 116774633.620 7  90993303.83345  22221486.172    22221489.758          45.700
        34.900
 126615662.808 6  98661601.54944  24094164.539    24094173.633          38.400
        24.700
 117306340.278 7  91407575.96645  22322645.453    22322653.902          45.800
        34.200
 126939718.936 6  98914100.33343  24155821.719    24155831.867          38.400
        20.600
 110307143.649 8  85953743.14346  20990770.648    20990776.168          51.300
        41.800
 129818299.169 6 101157209.07742  24703615.523    24703623.152          38.100
        15.600
 123355014.011 7  96120839.24644  23473666.734    23473671.375          42.600
        28.900
 134463990.26215 104777221.95554  25587643.391    25587652.602          34.300
        24.500
 108540659.598 8  84577187.34948  20654589.672    20654597.770          49.400
        52.900
 106577181.079 8  83047080.01547  20280935.742    20280941.438          51.900
        45.200
 22  1  1  2 10  0.0000000  0 10G19G06G03G30G17G24G21G08G01G14
 116694653.924 7  90930982.00145  22206266.594    22206269.535          45.500
        34.500
 126509434.423 6  98578826.21243  24073948.688    24073958.426          36.100
        22.000
 117234280.982 7  91351425.89245  22308933.055    22308942.207          45.600
        34.300
 127041082.911 6  98993085.24943  24175111.281    24175120.316          39.300
        22.600
 110270974.157 8  85925559.12647  20983888.102    20983893.445          50.900
        42.000
 129768526.004 6 101118424.73042  24694145.086    24694150.957          36.600
        16.900
 123445043.503 7  96190992.10444  23490799.305    23490803.828          43.500
        29.100
 134556762.598 5 104849512.11744  25605297.898    25605307.637          35.000
        24.000
 108603630.169 8  84626255.33648  20666573.094    20666581.133          50.300
        53.000
 106587428.731 8  83055065.18947  20282886.063    20282892.051          51.800
        45.800
 22  1  1  2 10 30.0000000  0 10G19G06G03G30G17G24G21G08G01G14
 116614854.081 7  90868800.31245  22191080.133    22191084.363          45.000
        34.900
 126403365.783 6  98496175.42443  24053765.148    24053774.828          36.300
        22.900
 117162666.409 7  91295622.34445  22295305.828    22295313.926          45.500
        34.000
 127142529.244 6  99072134.29043  24194415.648    24194424.566          39.400
        23.200
 110235032.384 8  85897552.55647  20977048.344    20977053.277          51.200
        42.300
 129719255.779 5 101080032.27142  24684765.773    24684775.453          35.000
        16.300
 123535170.382 7  96261220.83244  23507949.078    23507953.777          43.700
        29.000
 134649539.565 5 104921805.80043  25622953.031    25622962.535          32.400
        22.000
 108667049.228 8  84675672.78548  20678640.773    20678649.457          49.800
        52.700
 106598220.155 8  83063474.08747  20284939.109    20284945.039          51.200
        45.100
 22  1  1  2 11  0.0000000  0 10G19G06G03G30G17G24G21G08G01G14
 116535235.688 7  90806760.01645  22175929.781    22175933.133          45.300
        34.800
 126297458.982 6  98413650.69844  24033611.953    24033621.516          38.400
        24.800
 117091499.617 7  91240167.72745  22281762.594    22281771.277          45.300
        33.600
 127244055.493 6  99151245.59343  24213735.211    24213744.480          38.600
        21.700
 110199319.364 8  85869724.22547  20970252.664    20970257.715          50.900
        42.600
 129670490.505 5 101042033.31642  24675487.930    24675495.559          34.200
        17.400
 123625393.119 7  96331524.25744  23525117.805    23525122.855          43.100
        28.600
 134742321.723 5 104994103.46743  25640608.852    25640618.590          32.300
        23.000
 108730914.683 8  84725438.07248  20690794.219    20690802.375          50.000
        52.800
 106609556.106 8  83072307.29347  20287096.914    20287102.199          51.400
        45.200
 22  1  1  2 11 30.0000000  0 10G19G06G03G30G17G24G21G08G01G14
 116455799.164 7  90744861.42745  22160813.750    22160817.102          45.200
        34.600
 126191715.496 6  98331253.19944  24013490.406    24013499.031          38.300
        24.300
 117020783.286 7  91185064.11145  22268305.414    22268313.980          45.400
        34.000
 127345658.417 6  99230416.67543  24233069.602    24233078.520          38.800
        22.000
 110163835.336 8  85842074.33946  20963500.344    20963505.512          50.900
        41.900
 129622231.48615                  24666304.992                          33.400

 123715709.728 7  96401900.81644  23542305.234    23542309.582          44.500
        28.500
 134835107.740 5 105066404.11744  25658265.555    25658274.414          33.400
        24.300
 108795223.891 8  84775549.14148  20703031.492    20703040.293          50.700
        52.500
 106621436.753 8  83081564.93247  20289357.305    20289362.766          51.100
        45.300
 22  1  1  2 12  0.0000000  0 10G19G06G03G30G17G24G21G08G01G14
 116376545.283 7  90683105.16045  22145732.672    22145735.906          44.800
        35.300
 126086136.954 6  98248984.23844  23993398.516    23993407.961          38.100
        24.400
 116950520.354 7  91130313.80845  22254935.148    22254943.129          46.300
        34.200
 127447335.284 6  99309645.34943  24252418.086    24252428.000          38.100
        22.000
 110128580.570 8  85814603.09746  20956791.250    20956796.770          50.000
        41.700
 129574480.55215                  24657217.422                          31.500

 123806118.202 7  96472348.98744  23559508.758    23559513.691          43.700
        28.300
 134927897.476 5 105138707.69343  25675923.250    25675932.871          34.600
        23.300
 108859974.417 8  84826004.09948  20715353.461    20715361.676          50.000
        52.700
 106633862.541 8  83091247.35847  20291721.695    20291727.449          50.900
        44.900
 22  1  1  2 12 30.0000000  0 10G19G06G03G30G17G24G21G08G01G14
 116297474.731 7  90621491.75145  22130685.273    22130688.625          45.100
        34.900
 125980724.590 6  98166844.77343  23973338.594    23973348.742          39.700
        22.000
 116880713.206 7  91075918.66745  22241651.133    22241659.816          45.800
        34.500
 127549082.621 6  99388928.90943  24271779.805    24271789.133          37.600
        21.800
 110093554.885 8  85787310.35747  20950126.383    20950131.434          50.700
        42.600
 129527238.55515 100930408.47852  24648227.500    24648236.418          31.300
        15.600
 123896616.691 7  96542867.27744  23576729.578    23576735.273          43.800
        27.900
 135020690.664 5 105211013.96043  25693580.984    25693590.898          32.800
        22.500
 108925163.387 8  84876800.70548  20727758.406    20727766.621          50.800
        52.500
 106646833.368 8  83101354.49047  20294189.875    20294195.863          51.200
        45.100
 22  1  1  2 13  0.0000000  0 10G19G06G03G30G17G24G21G08G01G14
 116218588.491 7  90560021.95645  22115673.719    22115677.422          45.000
        35.000
 125875480.252 6  98084836.18743  23953311.727    23953320.703          40.700
        22.900
 116811364.656 7  91021880.85945  22228454.805    22228463.137          46.000
        34.700
 127650897.626 6  99468265.20243  24291154.656    24291164.395          39.100
        22.600
 110058759.074 8  85760196.73447  20943504.547    20943510.301          50.600
        42.500
 129480507.38015                  24639333.305                          31.000

 123987204.435 7  96613455.13044  23593969.281    23593972.926          43.600
        27.900
 135113487.006 5 105283322.71443  25711240.133    25711248.934          33.000
        22.000
 108990788.550 8  84927937.19548  20740246.531    20740254.980          49.900
        52.300
 106660349.585 8  83111886.60047  20296762.172    20296768.512          50.800
        45.100
 22  1  1  2 13 30.0000000  0 10G19G06G03G30G17G24G21G08G01G14
 116139887.482 7  90498696.51045  22100697.961    22100700.844          45.700
        34.600
 125770405.665 6  98002959.89943  23933316.680    23933325.598          39.600
        22.300
 116742477.800 7  90968202.79445  22215345.945    22215353.984          45.200
        34.200
 127752777.551 6  99547652.12243  24310543.164    24310551.086          37.500
        22.900
 110024193.234 8  85733262.31847  20936927.391    20936932.441          50.300
        42.700
 129434288.627 5 100857980.08453  24630540.070    24630549.105          34.100
        19.300
 124077879.141 7  96684110.73444  23611223.992    23611227.813          43.600
        27.800
 135206286.029 5 105355633.59343  25728899.422    25728908.516          33.100
        21.700
 109056847.395 8  84979411.61748  20752816.719    20752825.578          50.100
        52.100
 106674411.763 8  83122844.13447  20299438.539    20299444.410          51.500
        45.200
 22  1  1  2 14  0.0000000  0 10G19G06G03G30G17G24G21G08G01G14
 116061372.437 7  90437515.96145  22085757.406    22085759.879          46.200
        35.300
 125665502.288 6  97921217.07543  23913353.727    23913363.348          38.900
        21.800
 116674055.215 7  90914886.53345  22202325.477    22202333.516          45.800
        35.100
 127854719.363 6  99627087.23843  24329940.680    24329950.008          37.100
        22.300
 109989857.577 8  85706507.26047  20930393.266    20930398.375          50.100
        43.000
 129388583.697 5 100822365.86543  24621843.445    24621851.250          35.000
        18.300
 124168639.122 7  96754832.78944  23628495.180    23628498.648          43.400
        27.500
 135299087.503 5 105427946.34543  25746558.398    25746567.902          32.900
        20.100
 109123337.298 8  85031221.93448  20765469.930    20765478.379          50.500
        52.400
 106689019.931 8  83134227.11147  20302217.938    20302224.570          51.000
        45.000
 22  1  1  2 14 30.0000000  0 10G19G06G03G30G17G24G21G08G01G14
 115983044.817 7  90376481.46145  22070851.188    22070854.832          45.900
        35.000
 125560772.075 6  97839609.13443  23893424.531    23893433.742          39.100
        22.000
 116606099.940 7  90861934.38045  22189394.539    22189402.578          45.300
        35.200
 127956720.397 6  99706568.50244  24349351.211    24349360.129          39.200
        24.500
 109955752.743 8  85679932.06347  20923903.703    20923908.285          50.500
        42.700
 129343394.287 6 100787153.32643  24613243.375    24613251.414          36.100
        19.000
 124259482.830 7  96825620.10444  23645781.297    23645785.586          43.000
        26.900
 135391891.773 4 105500261.29742  25764218.258    25764228.289          29.600
        16.900
 109190256.157 8  85083366.50048  20778203.891    20778212.516          49.600
        52.100
 106704174.643 8  83146035.97447  20305101.883    20305107.344          50.700
        45.100
 22  1  1  2 15  0.0000000  0 10G19G06G03G30G17G24G21G08G01G14
 115904904.720 7  90315593.07445  22055982.234    22055985.410          46.600
        34.600
 125456216.197 6  97758137.03743  23873528.547    23873538.168          39.400
        22.300
 116538614.245 7  90809348.13445  22176552.023    22176560.121          44.500
        34.600
 128058777.255 6  99786093.25743  24368772.797    24368781.246          40.400
        23.000
 109921878.713 8  85653536.71747  20917457.922    20917462.387          49.400
        43.000
 129298721.281 6 100752343.15743  24604742.211    24604750.660          37.000
        18.300
 124350407.676 7  96896470.63244  23663083.367    23663088.301          43.600
        26.100
 135484697.39114                  25781878.500                          28.000

 109257600.961 8  85135842.96948  20791019.008    20791027.398          49.500
        51.900
 106719875.679 8  83158270.54247  20308089.586    20308095.516          51.200
        45.200
 22  1  1  2 15 30.0000000  0 10G19G06G03G30G17G24G21G08G01G14
 115826953.654 7  90254851.99245  22041148.867    22041151.281          47.000
        35.700
 125351836.467 6  97676802.27943  23853664.453    23853674.484          37.800
        21.500
 116471601.177 7  90757130.18145  22163800.289    22163807.508          45.500
        35.500
 128160887.351 6  99865659.54343  24388203.195    24388212.230          39.200
        21.500
 109888235.984 8  85627321.60147  20911055.625    20911060.676          51.200
        42.900
 129254566.592 6 100717936.89343  24596341.867    24596348.676          36.300
        18.300
 124441412.999 7  96967383.86744  23680402.125    23680405.711          42.600
        28.000
 135577504.30114 105644894.38752  25799539.813    25799549.141          28.000
        15.600
 109325369.509 8  85188649.63248  20803914.859    20803923.426          50.000
        51.800
 106736123.538 8  83170931.19847  20311181.508    20311187.613          52.000
        45.000
 22  1  1  2 16  0.0000000  0 10G19G06G03G30G17G24G21G08G01G14
 115749192.139 7  90194258.60645  22026350.883    22026354.176          46.300
        35.500
 125247634.338 6  97595605.85944  23833836.500    23833846.297          39.600
        24.600
 116405063.242 7  90705282.45345  22151138.477    22151146.457          44.800
        35.500
 128263047.585 6  99945264.84343  24407643.570    24407651.961          39.100
        20.900
 109854824.669 8  85601286.81647  20904697.805    20904702.563          49.800
        43.100
 129210931.234 6 100683935.30442  24588037.805    24588044.145          37.300
        17.400
 124532496.565 7  97038358.06644  23697733.734    23697739.020          42.000
        27.200
 135670312.49014 105717212.38152  25817198.969    25817211.051          27.600
        14.800
 109393559.101 8  85241784.37948  20816891.047    20816899.672          49.900
        51.900
 106752918.174 8  83184017.92347  20314377.250    20314383.297          50.900
        44.900
 22  1  1  2 16 30.0000000  0  9G19G06G03G30G17G24G21G01G14
 115671620.456 7  90133813.13845  22011588.773    22011592.535          45.600
        35.500
 125143611.283 6  97514548.97143  23814040.773    23814051.156          39.000
        22.900
 116339002.974 7  90653806.94345  22138567.766    22138575.629          44.700
        35.700
 128365254.849 6 100024906.82843  24427093.688    24427101.727          38.900
        20.100
 109821644.983 8  85575432.50947  20898383.648    20898388.934          50.000
        43.600
 129167816.559 6 100650339.44542  24579833.625    24579840.141          36.800
        16.900
 124623656.659 6  97109391.89744  23715081.813    23715086.102          41.800
        27.900
 109462167.017 8  85295245.09648  20829946.945    20829955.688          49.900
        52.000
 106770259.626 8  83197530.73847  20317677.188    20317683.645          51.500
        45.000
 22  1  1  2 17  0.0000000  0  9G19G06G03G30G17G24G21G01G14
 115594239.861 7  90073516.57745  21996864.086    21996867.848          46.100
        35.800
 125039768.845 6  97433632.84344  23794281.648    23794290.273          38.300
        25.200
 116273423.013 7  90602705.69045  22126087.648    22126096.391          45.100
        35.000
 128467506.239 6 100104583.20943  24446550.992    24446559.676          38.600
        19.900
 109788697.778 8  85549759.37047  20892113.750    20892118.801          50.300
        43.300
 129125223.817 6 100617150.25242  24571728.906    24571735.246          37.100
        16.900
 124714891.842 6  97180484.23744  23732442.570    23732447.504          41.600
        26.500
 109531190.758 8  85349029.82248  20843081.570    20843090.137          49.400
        51.800
 106788147.965 8  83211469.69547  20321081.305    20321087.586          51.000
        45.000
 22  1  1  2 17 30.0000000  0  9G19G06G03G30G17G24G21G01G14
 115517051.285 7  90013369.63246  21982176.273    21982179.273          46.600
        36.200
 124936108.528 6  97352858.61944  23774554.672    23774565.113          39.300
        26.300
 116208326.033 7  90551980.79446  22113700.125    22113708.457          45.000
        36.000
 128569798.872 6 100184291.68243  24466017.852    24466025.246          36.900
        19.000
 109755982.552 8  85524266.98247  20885888.234    20885893.051          50.000
        43.000
 129083154.401 5 100584368.83542  24563722.063    24563729.457          34.700
        16.900
 124806200.294 6  97251633.67244  23749817.961    23749823.129          40.800
        26.100
 109600627.748 8  85403136.57148  20856295.391    20856303.371          49.400
        51.900
 106806583.344 8  83225834.91647  20324589.711    20324595.172          50.500
        44.900
 22  1  1  2 18  0.0000000  0  9G19G06G03G30G17G24G21G01G14
 115440055.701 7  89953373.07845  21967524.359    21967526.891          46.200
        35.500
 124832631.938 6  97272227.56044  23754863.172    23754874.023          38.800
        25.800
 116143714.602 7  90501634.24645  22101405.500    22101413.188          45.300
        35.800
 128672129.767 6 100264029.99743  24485489.266    24485498.359          36.500
        19.000
 109723500.087 8  85498955.97247  20879707.297    20879712.641          48.600
        42.800
 129041609.496 5 100551996.16242  24555817.281    24555824.734          34.600
        15.600
 124897579.953 6  97322838.58744  23767207.828    23767212.234          41.000
        26.200
 109670475.402 8  85457563.31348  20869586.188    20869594.930          49.300
        51.600
 106825565.800 8  83240626.43447  20328201.914    20328208.020          51.000
        44.600
 22  1  1  2 18 30.0000000  0  9G19G06G03G30G17G24G21G01G14
 115363254.021 7  89893527.61745  21952909.250    21952912.543          46.300
        35.400
 124729340.768 6  97191740.96643  23735207.563    23735217.477          38.600
        22.800
 116079591.592 7  90451668.28545  22089202.664    22089211.348          44.500
        35.100
 128774496.278 6 100343796.04543  24504968.484    24504978.164          37.300
        19.600
 109691250.531 8  85473826.44647  20873570.336    20873575.211          48.600
        43.000
 129000590.739 5 100520033.44542  24548011.922    24548019.434          34.600
        16.900
 124989029.425 6  97394097.90744  23784610.055    23784614.520          40.800
        26.400
 109740731.434 8  85512308.27248  20882956.125    20882964.281          49.100
        51.700
 106845095.534 8  83255844.39747  20331918.070    20331923.883          51.300
        44.600
 22  1  1  2 19  0.0000000  0  9G19G06G03G30G17G24G21G01G14
 115286646.866 7  89833833.73845  21938331.266    21938335.027          45.800
        35.900
 124626236.193 6  97111399.75244  23715588.031    23715597.242          40.100
        24.500
 116015959.158 7  90402084.60045  22077094.016    22077102.289          45.000
        35.300
 128876895.062 6 100423587.27343  24524455.102    24524464.371          37.900
        23.800
 109659233.698 8  85448878.26747  20867477.992    20867482.633          48.600
        43.000
 128960098.857 5 100488481.34942  24540307.031    24540313.137          34.800
        16.300
 125080547.110 6  97465410.37144  23802024.414    23802029.465          40.400
        26.800
 109811392.824 8  85567369.09648  20896402.305    20896410.754          49.400
        51.500
 106865172.261 8  83271488.59147  20335738.875    20335744.277          50.700
        44.500
 22  1  1  2 19 30.0000000  0  9G19G06G03G30G17G24G21G01G14
 115210234.903 7  89774291.95246  21923790.250    21923794.070          46.200
        36.600
 124523320.028 6  97031205.35244  23696004.734    23696013.301          41.600
        26.500
 115952820.046 7  90352885.31746  22065078.891    22065087.281          45.600
        36.000
 128979323.350 6 100503401.46843  24543946.922    24543955.488          37.500
        22.300
 109627450.588 8  85424112.20247  20861429.922    20861435.031          49.600
        43.000
 128920135.480 5 100457341.11642  24532699.570    24532708.371          33.900
        14.800
 125172131.411 6  97536774.76244  23819451.953    23819457.355          41.300
        26.700
 109882457.274 8  85622743.99148  20909925.344    20909933.734          49.500
        51.500
 106885796.277 8  83287559.24747  20339662.984    20339669.559          51.000
        44.400
 22  1  1  2 20  0.0000000  0  9G19G06G03G30G17G24G21G01G14
 115134019.317 7  89714903.19046  21909287.641    21909290.289          46.500
        36.900
 124420593.837 6  96951159.01943  23676455.383    23676465.121          38.700
        22.600
 115890176.988 7  90304072.56845  22053158.578    22053166.910          45.600
        35.500
 129081778.461 6 100583236.50643  24563443.219    24563452.547          36.400
        22.800
 109595901.917 8  85399528.82747  20855426.211    20855430.969          50.300
        43.400
 128880701.78415 100426613.58952  24525195.797    24525204.246          34.600
        16.900
 125263780.934 6  97608189.95344  23836893.359    23836898.293          40.900
        26.900
 109953922.286 8  85678431.01548  20923525.445    20923533.250          49.800
        51.800
 106906967.566 8  83304056.34647  20343692.266    20343698.371          51.100
        44.700
 22  1  1  2 20 30.0000000  0  9G19G06G03G30G17G24G21G01G14
 115058001.110 7  89655668.23145  21894821.547    21894824.781          46.800
        35.500
 124318059.116 6  96871261.87944  23656944.148    23656952.480          40.600
        24.500
 115828032.473 7  90255648.28645  22041332.695    22041340.676          45.600
        35.100
 129184257.498 6 100663090.25843  24582944.188    24582953.398          38.300
        22.500
 109564587.489 8  85375127.97147  20849467.023    20849471.781          48.500
        42.900
 128841798.93215 100396299.69552  24517791.797    24517801.652          33.200
        15.600
 125355493.719 6  97679654.45444  23854345.625    23854349.973          40.900
        26.100
 110025785.312 8  85734428.17848  20937199.867    20937208.316          49.300
        51.300
 106928686.163 8  83320979.91847  20347825.109    20347831.098          51.500
        44.600
 22  1  1  2 21  0.0000000  0  9G19G06G03G30G17G24G21G01G14
 114982180.994 7  89596587.62446  21880393.555    21880396.848          46.700
        36.300
 124215717.360 6  96791515.00244  23637468.078    23637477.992          40.500
        24.700
 115766388.910 7  90207614.37245  22029601.586    22029610.387          45.500
        35.800
 129286757.328 6 100742960.17744  24602450.344    24602459.379          39.100
        24.300
 109533507.407 8  85350909.73147  20843552.984    20843558.152          48.600
        43.000
 128803427.930 5 100366400.16442  24510491.070    24510500.340          33.800
        16.900
 125447268.027 6  97751166.89544  23871810.023    23871814.020          41.600
        25.800
 110098043.638 8  85790733.37148  20950950.500    20950958.598          48.900
        51.300
 106950951.839 8  83338329.79047  20352062.117    20352068.105          50.900
        44.300
 22  1  1  2 21 30.0000000  0  9G19G06G03G30G17G24G21G01G14
 114906560.305 7  89537662.42646  21866004.078    21866006.609          46.600
        36.800
 124113570.413 6  96711920.05544  23618031.195    23618040.523          39.200
        24.800
 115705249.272 7  90159973.12145  22017967.422    22017976.691          45.400
        35.700
 129389275.559 6 100822844.48543  24621957.961    24621967.055          41.100
        22.200
 109502662.954 8  85326875.08747  20837683.305    20837687.945          49.300
        43.300
 128765590.510 5 100336916.44142  24503290.602    24503299.637          35.200
        17.800
 125539102.795 6  97822726.45344  23889285.273    23889289.211          41.100
        24.900
 110170695.127 8  85847344.91548  20964775.203    20964783.477          48.800
        51.100
 106973765.065 8  83356106.31847  20356403.305    20356409.117          51.000
        44.300
 22  1  1  2 22  0.0000000  0  9G19G06G03G30G17G24G21G01G14
 114831139.462 7  89478892.94946  21851651.648    21851654.707          46.700
        37.100
 124011619.296 6  96632477.65444  23598630.547    23598639.172          40.700
        25.100
 115644615.409 7  90112725.97545  22006429.258    22006438.293          46.800
        35.800
 129491808.680 6 100902740.45043  24641469.133    24641478.754          39.800
        21.800
 109472053.142 8  85303023.29147  20831858.203    20831863.254          50.500
        43.200
 128728287.187 5 100307848.96743  24496194.219    24496202.375          35.000
        18.300
 125630995.888 6  97894331.46144  23906771.734    23906775.848          40.900
        25.500
 110243736.630 8  85904260.36348  20978674.602    20978682.758          49.600
        51.000
 106997125.070 8  83374308.91447  20360848.844    20360854.129          50.500
        44.700
 22  1  1  2 22 30.0000000  0  9G19G06G03G30G17G24G21G01G14
 114755919.364 7  89420279.89646  21837337.250    21837340.484          47.000
        36.800
 123909865.657 6  96553189.11044  23579266.773    23579276.219          40.400
        25.500
 115584490.018 7  90065875.04446  21994987.984    21994996.258          45.800
        36.000
 129594354.144 6 100982645.96043  24660983.852    24660992.301          39.200
        20.600
 109441678.779 8  85279354.95847  20826078.063    20826083.172          50.300
        42.900
 128691519.135 6 100279198.53143  24489198.875    24489204.336          37.000
        18.300
 125722945.773 6  97965980.72043  23924269.023    23924274.250          40.500
        23.500
 110317165.787 8  85961477.88648  20992647.711    20992656.219          49.400
        51.000
 107021031.988 8  83392937.66447  20365397.828    20365403.641          50.800
        44.300
 22  1  1  2 23  0.0000000  0  9G19G06G03G30G17G24G21G01G14
 114680900.690 7  89361823.79946  21823061.320    21823064.789          46.600
        36.400
 123808310.901 6  96474055.59544  23559942.195    23559951.465          40.500
        26.900
 115524875.445 7  90019422.15545  21983644.078    21983651.883          46.300
        35.900
 129696908.850 6 101062558.72843  24680498.102    24680507.195          36.300
        18.600
 109411540.418 8  85255870.52147  20820342.844    20820348.129          48.600
        43.400
 128655287.509 6 100250966.14542  24482302.320    24482309.480          37.000
        17.400
 125814950.839 6  98037672.96944  23941776.734    23941781.785          39.800
        25.300
 110390979.890 8  86018995.37148  21006693.898    21006702.699          49.300
        50.800
 107045485.612 8  83411992.43047  20370051.141    20370056.895          50.800
        44.300
 22  1  1  2 23 30.0000000  0  9G19G06G03G30G17G24G21G01G14
 114606084.992 7  89303525.86646  21808824.227    21808827.871          46.900
        36.500
 123706957.055 6  96395078.59344  23540654.836    23540664.281          41.100
        26.800
 115465774.645 7  89973369.59846  21972397.039    21972405.488          44.900
        36.100
 129799470.572 5 101142476.95942  24700015.133    24700025.281          34.700
        16.300
 109381638.690 8  85232570.47747  20814652.781    20814658.066          50.300
        42.700
 128619593.693 6 100223152.74442  24475512.422    24475517.297          36.900
        17.800
 125907009.236 6  98109406.78843  23959296.305    23959299.832          39.900
        22.800
 110465176.868 8  86076811.19648  21020813.156    21020821.664          49.100
        50.800
 107070486.274 8  83431473.45447  20374808.789    20374814.836          50.000
        44.100
 22  1  1  2 24  0.0000000  0  9G19G06G03G30G17G24G21G01G14
 114531472.613 7  89245386.36046  21794626.875    21794630.227          47.900
        36.400
 123605804.987 6  96316258.83544  23521406.250    23521415.930          40.200
        25.900
 115407189.444 7  89927718.80146  21961248.766    21961256.688          46.400
        36.100
 129902035.843 5 101222397.92842  24719533.250    24719542.520          33.000
        15.600
 109351973.567 8  85209454.79247  20809007.883    20809013.285          50.200
        43.300
 128584438.290 6 100195758.93442  24468819.508    24468826.785          36.300
        17.400
 125999120.464 6  98181181.76544  23976823.891    23976827.887          39.500
        24.600
 110539753.647 8  86134922.96748  21035004.867    21035013.316          49.800
        50.500
 107096033.294 8  83451380.21347  20379669.656    20379676.230          50.800
        44.200
 22  1  1  2 24 30.0000000  0  9G19G06G03G30G17G24G21G01G14
 114457065.056 7  89187406.46046  21780467.016    21780469.957          47.100
        36.500
 123504856.834 6  96237597.95344  23502196.758    23502205.852          41.600
        28.000
 115349122.884 7  89882472.13747  21950198.773    21950206.871          44.700
        45.800
 130004602.236 5 101302319.80542  24739051.555    24739059.887          32.900
        14.800
 109322545.715 8  85186524.00147  20803407.906    20803413.367          49.100
        43.200
 128549822.879 5 100168785.89842  24462233.359    24462239.992          35.200
        15.600
 126091282.706 6  98252996.48944  23994361.586    23994365.992          40.000
        25.600
 110614708.112 8  86193329.04448  21049268.086    21049276.477          48.500
        50.500
 107122127.003 8  83471712.96747  20384635.594    20384641.465          50.200
        44.300
 22  1  1  2 25  0.0000000  0  9G19G06G03G30G17G24G21G01G14
 114382862.722 7  89129586.46346  21766346.703    21766350.348          47.200
        37.100
 123404113.562 6  96159096.74344  23483025.414    23483034.742          41.400
        26.600
 115291576.868 7  89837631.10347  21939247.891    21939256.926          45.300
        45.900
 130107166.787 5 101382240.17042  24758567.703    24758577.031          33.800
        16.300
 109293355.196 8  85163778.14047  20797853.414    20797857.996          50.000
        43.200
 128515748.098 5 100142234.13842  24455748.484    24455755.762          34.500
        17.400
 126183493.663 6  98324849.17244  24011908.625    24011913.441          40.400
        24.800
 110690037.355 8  86252027.15048  21063602.922    21063611.254          49.400
        50.700
 107148766.824 8  83492471.25847  20389704.797    20389710.961          50.000
        43.600
 22  1  1  2 25 30.0000000  0  9G19G06G03G30G17G24G21G01G14
 114308866.372 8  89071926.96646  21752266.148    21752269.031          48.200
        36.800
 123303576.413 6  96080756.13544  23463894.109    23463903.203          40.700
        26.300
 115234553.459 7  89793197.29347  21928397.094    21928405.367          45.700
        46.100
 130209726.047 6 101462156.45043  24778084.906    24778094.703          37.400
        19.900
 109264401.623 8  85141216.91647  20792343.508    20792348.559          49.300
        43.400
 128482214.555 5 100116104.10742  24449367.141    24449374.359          33.500
        15.600
 126275751.392 6  98396738.30143  24029464.500    24029469.434          39.500
        23.800
 110765738.452 8  86311015.02148  21078008.359    21078016.691          48.800
        50.500
 107175952.228 8  83513654.67547  20394878.516    20394884.270          51.000
        44.100
 22  1  1  2 26  0.0000000  0  9G19G06G03G30G17G24G21G01G14
 114235077.221 7  89014428.92046  21738224.617    21738227.031          47.900
        37.300
 123203247.168 6  96002577.53244  23444802.773    23444811.281          41.600
        28.800
 115178055.362 7  89749172.82447  21917645.820    21917654.094          45.600
        46.200
 130312277.630 6 101542066.71743  24797599.102    24797609.250          38.900
        22.300
 109235686.077 8  85118841.17347  20786879.461    20786884.512          49.300
        43.100
 128449223.568 5 100090396.83442  24443088.375    24443095.652          35.100
        15.600
 126368055.230 6  98468663.33944  24047031.023    24047034.492          40.700
        26.200
 110841809.160 8  86370290.89348  21092484.016    21092492.875          48.700
        50.500
 107203683.302 8  83535263.29547  20400155.484    20400161.297          49.600
        43.800
 22  1  1  2 26 30.0000000  0  9G19G06G03G30G17G24G21G01G14
 114161495.974 7  88957092.88546  21724222.445    21724225.680          47.900
        37.200
 123103127.304 6  95924562.10744  23425749.469    23425759.324          39.700
        27.400
 115122084.870 7  89705559.48947  21906995.508    21907003.430          45.600
        46.400
 130414818.697 6 101621968.81144  24817112.633    24817122.488          40.000
        24.000
 109207208.863 8  85096651.13347  20781460.555    20781465.371          49.900
        43.300
 128416775.899 5 100065112.94842  24436912.977    24436922.246          32.900
        16.300
 126460403.515 6  98540623.03544  24064602.391    24064607.148          40.300
        24.700
 110918246.877 8  86429852.75148  21107029.938    21107038.035          49.200
        50.600
 107231959.781 8  83557296.91347  20405536.141    20405542.188          50.500
        43.800
